"stop_id","stop_name","stop_desc","stop_lat","stop_lon","zone_id","stop_url","location_type","parent_station"
43968810_S,"R. São Cristóvão 2 - Sussuarana Salvador - BA 41213-430 Brasil","SUSSUARANA VELHA",-12.931565284729,-38.444393157959,,"",1,
43968810,"R. São Cristóvão 2 - Sussuarana Salvador - BA 41213-430 Brasil","SUSSUARANA VELHA",-12.931565284729,-38.444393157959,,"",0,43968810_S
47566106_S,"Av. Ulysses Guimarães 4067 - Sussuarana Salvador - BA 41213-000 Brasil","",-12.93385887146,-38.4467735290527,,"",1,
47566106,"Av. Ulysses Guimarães 4067 - Sussuarana Salvador - BA 41213-000 Brasil","",-12.93385887146,-38.4467735290527,,"",0,47566106_S
44782337,"Av. Ulysses Guimarães 4314-4322 - Novo Horizonte Salvador - BA 41218-700 Brasil","",-12.9351501464844,-38.4405784606934,,"",0,
44784470,"Av. Ulysses Guimarães 4528-4530 - Novo Horizonte Salvador - BA 41218-700 Brasil","",-12.9370174407959,-38.4375762939453,,"",0,
44784471,"Av. Ulysses Guimarães 4594 - Sussuarana Salvador - BA 41213-000 Brasil","",-12.9390363693237,-38.4359321594238,,"",0,
44784483,"Av. Ulysses Guimarães 2886 - Sussuarana Salvador - BA 41213-000 Brasil","",-12.9397563934326,-38.4341087341309,,"",0,
46022126,"Av. Ulysses Guimarães 4776-4780 - Novo Horizonte Salvador - BA Brasil","",-12.9400091171265,-38.4310111999512,,"",0,
44783450,"Avenida Ulysses Guimarães S/N - Centro Administrativo da Bahia Salvador - BA 41213-000 Brasil","",-12.9422006607056,-38.4296646118164,,"",0,
46021858,"5A Avenida Centro Administrativo da Bahia 517-705 - Novo Horizonte Salvador - BA 41745-004 Brasil","",-12.9448022842407,-38.4317245483398,,"",0,
46021859,"Rua 5ª Av. do CAB S/N - Centro Administrativo da Bahia Salvador - BA 41745-004 Brasil","",-12.9471988677979,-38.4333381652832,,"",0,
44784482,"5A Avenida Centro Administrativo da Bahia 1-193 - Pituaçu Salvador - BA 41745-004 Brasil","",-12.9491109848022,-38.4319686889648,,"",0,
69621796,"Rua Viaduto CAB_CAB S/N - Centro Administrativo da Bahia Salvador - BA 41745-003 Brasil","",-12.9512147903442,-38.4306182861328,,"",0,
43968748,"Rua 2ª Av. do Cab S/N - Centro Administrativo da Bahia Salvador - BA 41745-003 Brasil","",-12.9535226821899,-38.4297714233398,,"",0,
45834755,"Avenida Luiz Viana Salvador - Bahia 41745 Brasil","",-12.9567537307739,-38.4303588867188,,"",0,
43968713,"Avenida Luiz Viana Salvador - Bahia 41181 Brasil","",-12.9618034362793,-38.4347114562988,,"",0,
44782577,"Avenida Luiz Viana Salvador - Bahia 41194 Brasil","",-12.9668254852295,-38.4391441345215,,"",0,
44782576,"Av. Luís Viana 1813-1875 - Imbuí Salvador - BA Brasil","",-12.968391418457,-38.4414558410645,,"",0,
47568009,"Avenida Luiz Viana Salvador - Bahia 41120 Brasil","",-12.9751291275024,-38.4533271789551,,"",0,
68455378,"Avenida Paralela Salvador - Bahia 41100 Brasil","",-12.9751434326172,-38.4579010009766,,"",0,
43968706,"Avenida Luiz Viana Filho 101a Salvador - Bahia 41110 Brasil","",-12.9755306243896,-38.4610633850098,,"",0,
258781031,"ESTAÇÃO RODOVIÁRIA","",-12.978835105896,-38.4657897949219,,"",0,
43968750,"Av. Antônio Carlos Magalhães 4446 - Pernambués Salvador - BA Brasil","",-12.977991104126,-38.4700736999512,,"",0,
43968727,"Avenida Heitor Dias 198 - Vila Laura Salvador - BA Brasil","",-12.9684581756592,-38.4838027954102,,"",0,
110005341,"Av. Heitor Dias 150-154 - Cabula Salvador - BA Brasil","",-12.9680824279785,-38.4858169555664,,"",0,
44782995,"Avenida Heitor Dias 92-96 - Cabula Salvador - BA Brasil","",-12.9677324295044,-38.4880180358887,,"",0,
43968721,"Av. Heitor Dias 10-18 - Cabula Salvador - BA Brasil","",-12.9659175872803,-38.4926261901855,,"",0,
45212069,"R. Cônego Pereira S/N - Vila Laura Salvador - BA Brasil","",-12.9668254852295,-38.4939193725586,,"",0,
43768702,"R. Cônego Pereira S/N - Macaúbas Salvador - BA Brasil","",-12.968560218811,-38.4956970214844,,"",0,
45212728,"R. Cônego Pereira S/N - Matatu Salvador - BA Brasil","",-12.9699592590332,-38.4983139038086,,"",0,
44782325,"Acesso Presidente Costa e Silva S/N - Santo Antonio Salvador - BA Brasil","",-12.968300819397,-38.5035743713379,,"",0,
44783904,"R. Estado de Israel 78-148 - Comercio Salvador - BA Brazil","",-12.961540222168,-38.5059700012207,,"",0,
44427617_S,"Avenida Da Franca 3 Salvador - Bahia 41015 Brasil","",-12.9708433151245,-38.513786315918,,"",1,
44427617,"Avenida Da Franca 3 Salvador - Bahia 41015 Brasil","",-12.9708433151245,-38.513786315918,,"",0,44427617_S
44165303,"R. do São João 2-28 - Comercio Salvador - BA Brazil","",-12.971830368042,-38.5119972229004,,"",0,
45834800,"R. Carlos Gomes S/N - Dois de Julho Salvador - BA Brasil","",-12.9785308837891,-38.5151786804199,,"",0,
44783923,"Rua Carlos Gomes 116 - Dois de Julho Salvador - BA Brasil","",-12.9802846908569,-38.5151329040527,,"",0,
44783920,"R. Carlos Gomes 300 - Campo Grande Salvador - BA 40060-330 Brazil","",-12.9813241958618,-38.5151824951172,,"",0,
45833156,"R. Carlos Gomes 476 - Campo Grande Salvador - BA 40060-330 Brasil","",-12.9818506240845,-38.5153617858887,,"",0,
44783422,"R. Carlos Gomes 698 - Campo Grande Salvador - BA Brazil","",-12.982964515686,-38.5166397094727,,"",0,
45833714,"Rua Carlos Gomes 912 - Campo Grande Salvador - BA 40060-330 Brasil","",-12.9841146469116,-38.5184097290039,,"",0,
45833157,"R. Carlos Gomes 1162 - Campo Grande Salvador - BA 40060-330 Brazil","",-12.985671043396,-38.5201187133789,,"",0,
343046693,"Avenida Sete De Setembro 1427 Salvador - Bahia 40060 Brasil","Passeio Publico",-12.9865942001343,-38.5210189819336,,"",0,
44165312,"Av. Centenário 2124 - Chame-Chame Salvador - BA 40155-150 Brasil","TS SHOP. BARRA.....",-13.0051155090332,-38.5235595703125,,"",0,
44783805,"Condomínio Edficio Arembepe - R. Prof. Fernando Luz 12 - Barra Salvador - BA 40160-140 Brasil","",-13.0094327926636,-38.5244026184082,,"",0,
44783812,"Rua Do Cristo Salvador - Bahia 40170 Brasil","",-13.0079574584961,-38.5184326171875,,"",0,
44165336,"Avenida Oceanica 2142 Salvador - Bahia 40170 Brasil","",-13.0088586807251,-38.5154075622559,,"",0,
44165337,"Avenida Oceanica 2411 Salvador - Bahia 40170 Brasil","",-13.0101461410522,-38.5118103027344,,"",0,
44783799,"Avenida Oceanica 2580 Salvador - Bahia 40170 Brasil","",-13.0107173919678,-38.5090026855469,,"",0,
44783868,"Avenida Oceanica 2551 Salvador - Bahia 40170 Brasil","",-13.0112934112549,-38.5067977905273,,"",0,
44783880,"Avenida Oceanica Salvador - Bahia 41950 Brasil","",-13.0108242034912,-38.5015487670898,,"",0,
44783879,"Av. Oceânica S/N - Rio Vermelho Salvador - BA Brasil","",-13.0105609893799,-38.4992370605469,,"",0,
44783889,"Rua Borges Dos Reis Salvador - Bahia 41950 Brasil","",-13.0129528045654,-38.4912071228027,,"",0,
44783884,"R. Borges dos Reis S/N Bahia Brasil","",-13.0141563415527,-38.4884414672852,,"",0,
44783898,"Rua Marquês De Monte Santo Salvador - Bahia 41940 Brasil","",-13.0131330490112,-38.4847793579102,,"",0,
44784377,"R. Marquês de Monte Santo S/N - Rio Vermelho Salvador - BA Brasil","",-13.0129776000977,-38.4824600219727,,"",0,
44783109,"Avenida Amaralina 18 Salvador - Bahia 41900 Brasil","",-13.0141267776489,-38.4777984619141,,"",0,
44783108,"Avenida Amaralina 599 Salvador - Bahia 41900 Brasil","",-13.0136547088623,-38.4721794128418,,"",0,
44783077,"Avenida Otavio Mangabeira 2 Salvador - Bahia 41900 Brasil","",-13.0119695663452,-38.4677696228027,,"",0,
44783078,"Av. Otávio Mangabeira S/N Bahia Brasil","",-13.0104169845581,-38.4651031494141,,"",0,
44784529,"Av. Otávio Mangabeira S/N Bahia Brasil","",-13.0086240768433,-38.4613151550293,,"",0,
44784527,"Avenida Otavio Mangabeira 1221 Salvador - Bahia 41830 Brasil","",-13.0065279006958,-38.4588661193848,,"",0,
44784533,"R. Pernambuco S/N - Pituba Salvador - BA Brasil","",-13.0055599212646,-38.4575080871582,,"",0,
44782593,"Avenida Antônio Carlos Magalhães 217 Salvador - Bahia 41825 Brasil","",-12.9994983673096,-38.460090637207,,"",0,
43768233,"Avenida Antônio Carlos Magalhães 860 - Pituba Salvador - BA Brasil","",-12.997784614563,-38.4627799987793,,"",0,
45833402,"Av. ACM S/N - Pituba Salvador - BA Brasil","",-12.9967937469482,-38.4648513793945,,"",0,
43768235,"Av. ACM S/N - Pituba Salvador - BA Brasil","",-12.9963779449463,-38.4666519165039,,"",0,
43768236,"Avenida Antonio Carlos Magalhaes Salvador - Bahia 41825 Brasil","",-12.9960279464722,-38.4705047607422,,"",0,
45833174,"Avenida Antonio Carlos Magalhaes Salvador - Bahia 41825 Brasil","",-12.9916095733643,-38.4744300842285,,"",0,
260883656,"Avenida Antonio Carlos Magalhaes 1298 Salvador - Bahia 41815 Brasil","",-12.9893074035645,-38.4704818725586,,"",0,
236338183,"Avenida Antônio Carlos Magalhães 3410 Salvador - Bahia 41820 Brasil","",-12.9868412017822,-38.4665603637695,,"",0,
43768555,"Avenida Tancredo Neves Caminho das Árvores Salvador - BA 41820-021 Brasil","",-12.9810028076172,-38.4652976989746,,"",0,
44783759,"Avenida Tancredo Neves Salvador - Bahia 41820 Brasil","",-12.9792957305908,-38.4632339477539,,"",0,
43768238,"Av. Tancredo Neves 1240-1250 - Caminho das Árvores Salvador - BA 41820-020 Brasil","",-12.9803743362427,-38.4569358825684,,"",0,
43768307,"Av. Tancredo Neves S/N - Caminho das Árvores Salvador - BA Brasil","",-12.9825572967529,-38.4545211791992,,"",0,
44783764,"Av. Tancredo Neves 2000 - Pituba Salvador - BA Brasil","",-12.9837207794189,-38.4512405395508,,"",0,
43768660,"Av. ACM S/N - Caminho das Árvores Salvador - BA Brasil","",-12.9790916442871,-38.4512710571289,,"",0,
44784353,"Av. Luís Viana 298-570 - Imbuí Salvador - BA Brasil","",-12.9750080108643,-38.451602935791,,"",0,
190561930,"Avenida Luiz Viana Salvador - Bahia 41820 Brasil","",-12.9708194732666,-38.4429473876953,,"",0,
43968715,"002465 - Luís Viana - Imbuí Salvador - BA 41730-101 Brasil","",-12.9677095413208,-38.4380378723145,,"",0,
101269104,"Av. Luís Viana 18 - Imbuí Salvador - BA Brasil","",-12.9642572402954,-38.435131072998,,"",0,
44782718,"EXTRA PARALELA","",-12.961817741394,-38.4329605102539,,"",0,
44783707,"Av. Luís Viana 3638-3658 - Imbuí Salvador - BA Brasil","",-12.957311630249,-38.4295959472656,,"",0,
45833656,"Avenida Luiz Viana Salvador - Bahia 41740 Brasil","",-12.9534606933594,-38.4267501831055,,"",0,
44783445,"1ª Avenida Centro Administrativo da Bahia 100 - Centro Administrativo da Bahia Salvador - BA Brasil","",-12.9476194381714,-38.4274978637695,,"",0,
69621797,"1ª Avenida Centro Administrativo da Bahia 1-61 - Centro Administrativo da Bahia Salvador - BA 41745-001 Brasil","",-12.9482583999634,-38.4306449890137,,"",0,
46021875,"Via 5ª Av. Centro Administrativo da Bahia s/n - Centro Administrativo da Bahia Salvador - BA 41745-004 Brasil","",-12.9475927352905,-38.432788848877,,"",0,
45834465,"5A Avenida Centro Administrativo da Bahia 170-546 - Centro Administrativo da Bahia Salvador - BA 41745-004 Brasil","",-12.9450006484985,-38.431282043457,,"",0,
44783446,"Estrada Sussuarana 3539 - Centro Administrativo da Bahia Salvador - BA 41213-000 Brasil","",-12.94225025177,-38.4292640686035,,"",0,
44782336,"Av. Ulysses Guimarães 4775-4779 - Novo Horizonte Salvador - BA Brasil","",-12.9400768280029,-38.4306945800781,,"",0,
44784472,"Av. Ulysses Guimarães 4673-4681 - Novo Horizonte Salvador - BA Brasil","",-12.9395780563354,-38.4338417053223,,"",0,
44784473,"Av. Ulysses Guimarães 2793 - Novo Horizonte Salvador - BA Brasil","",-12.9391975402832,-38.4354972839355,,"",0,
44784484,"Avenida Ulysses Guimarães 4355-4499 - Novo Horizonte Salvador - BA 41218-700 Brasil","",-12.9357099533081,-38.4391975402832,,"",0,
44784622,"Avenida Ulysses Guimarães 4303-4307 - Sussuarana Salvador - BA 41213-780 Brasil","",-12.9346122741699,-38.4412269592285,,"",0,
45834604,"000068 - Ulysses Guimarães 4075-4121 - Sussuarana Salvador - BA 41214-145 Brasil","",-12.9331827163696,-38.444881439209,,"",0,
44067644,"Condomínio Edifício Juiz Paulo Fontes - Largo do Campo Grande 248 - Campo Grande Salvador - BA 40080-120 Brasil","TS CAMPO GRANDE....",-12.9901428222656,-38.5217552185059,,"",0,
131666300,"Av. Reitor Miguel Calmon 1977 - Vitória Salvador - BA 40301-155 Brasil","",-12.9950866699219,-38.5251846313477,,"",0,
44784127,"Av. Reitor Miguel Calmon 1105-1385 - Canela Salvador - BA Brazil","",-12.9951553344727,-38.5192985534668,,"",0,
44165309,"Av. Centenário 1106 - Graça Salvador - BA 40155-370 Brasil","",-12.9985961914063,-38.5174560546875,,"",0,
44783384,"Rua Professor Martagão Gesteira 95 - Graça Salvador - BA 40150-390 Brasil","",-13.0003185272217,-38.5190391540527,,"",0,
61134868,"Av. Centenário 1746-1826 - Chame-Chame Salvador - BA Brasil","",-13.0022144317627,-38.5216369628906,,"",0,
45833944_S,"Rua Micronésia 2","TP SÃO MARCOS",-12.9291667938232,-38.4375,,"",1,
45833944,"Rua Micronésia 2","TP SÃO MARCOS",-12.9291667938232,-38.4375,,"",0,45833944_S
44784089,"Tv. Boca do Rio 13-59 - São Marcos Salvador - BA 41250-230 Brasil","",-12.9266147613525,-38.4365310668945,,"",0,
45833505,"R. São Marcos 252 - São Marcos Salvador - BA 41253-190 Brasil","",-12.9250726699829,-38.4395332336426,,"",0,
44165028,"R. São Marcos 94 - São Marcos Salvador - BA 41253-190 Brasil","",-12.9233427047729,-38.4409675598145,,"",0,
44783562,"Rua Dr. Arthur Gonzales 37-55 - São Marcos Salvador - BA Brasil","",-12.9203577041626,-38.4428215026855,,"",0,
44783564,"R. Pastor José Guilherme de Morães 91 - Pau da Lima Salvador - BA 41235-015 Brasil","",-12.9176874160767,-38.4426193237305,,"",0,
48480954,"Av. Aliomar Baleeiro 2381-2421 - Jardim Cajazeiras Salvador - BA 41230-455 Brasil","",-12.9154758453369,-38.4437408447266,,"",0,
128264371,"Av. Aliomar Baleeiro 235 - Pau da Lima Salvador - BA 41235-305 Brasil","",-12.9130697250366,-38.4473304748535,,"",0,
44783263,"R. Estr. Velha do Aeroporto S/N - Jardim Cajazeiras Salvador - BA Brasil","",-12.9129934310913,-38.4513168334961,,"",0,
44784244,"Rua da Bolívia 857-1145 - Granjas Rurais Presidente Vargas Salvador - BA Brasil","",-12.9157390594482,-38.456356048584,,"",0,
46021755,"Rua da Bolívia 793-855 - Granjas Rurais Presidente Vargas Salvador - BA Brasil","",-12.9153833389282,-38.4591331481934,,"",0,
43768282,"R. br 324 s/n - Jardim Santo Inacio Salvador - BA Brasil","",-12.9164638519287,-38.4628944396973,,"",0,
43768244,"Psa. 324 - São Caetano Salvador - BA Brasil","",-12.9291772842407,-38.469425201416,,"",0,
47567660,"R. do Bom Juá 56 B - Fazenda Grande do Retiro Salvador - BA 40353-160 Brasil","",-12.9446725845337,-38.4708862304688,,"",0,
45834545,"Av. Barros Réis 4089 - Fazenda Grande do Retiro Salvador - BA Brasil","",-12.9483652114868,-38.4718055725098,,"",0,
45833010,"Av. Barros Réis 4089 - Fazenda Grande do Retiro Salvador - BA Brasil","",-12.9503364562988,-38.4739646911621,,"",0,
43768719,"Av. Barros Réis 2986 C - Retiro Salvador - BA 40310-010 Brasil","",-12.9540796279907,-38.4753456115723,,"",0,
49417952,"Avenida Barros Réis 638 - Pau Miúdo Salvador - BA 40310-010 Brasil","",-12.9580688476563,-38.476749420166,,"",0,
44165200,"Av. Barros Réis 628 - Pau Miúdo Salvador - BA 40310-010 Brasil","",-12.9600524902344,-38.4776344299316,,"",0,
43968736,"Av. Barros Réis 414 - Pau Miúdo Salvador - BA 40310-010 Brasil","",-12.9630603790283,-38.4791793823242,,"",0,
45833011,"Av. Barros Reis 340 - Cabula Salvador - BA Brasil","",-12.9669151306152,-38.4800453186035,,"",0,
45834423,"Avenida José Joaquim Seabra 392-400 - Saúde Salvador - BA Brazil","",-12.9687576293945,-38.504264831543,,"",0,
45833932,"Avenida José Joaquim Seabra 263","",-12.9707336425781,-38.507381439209,,"",0,
45833102,"Avenida José Joaquim Seabra 178-186 - Pelourinho Salvador - BA Brazil","",-12.9739742279053,-38.5073776245117,,"",0,
45834425,"Av. José Joaquim Seabra S/N - Nazaré Salvador - BA Brasil","",-12.9759349822998,-38.5099639892578,,"",0,
45834426_S,"Ladeira Das Hortas 93 Salvador - Bahia 40040 Brasil","TS BARROQUINHA",-12.9786424636841,-38.5124282836914,,"",1,
45834426,"Ladeira Das Hortas 93 Salvador - Bahia 40040 Brasil","TS BARROQUINHA",-12.9786424636841,-38.5124282836914,,"",0,45834426_S
44782954,"Avenida José Joaquim Seabra 107-123 - Nazaré Salvador - BA Brasil","",-12.9756889343262,-38.5089569091797,,"",0,
44428471,"Campo Largo da Pólvora s/n - Nazaré Salvador - BA Brasil","",-12.9786701202393,-38.5074462890625,,"",0,
44782748,"Av. Joana Angélica S/N - Nazaré Salvador - BA Brasil","",-12.9769849777222,-38.5056190490723,,"",0,
45833937,"Avenida Joana Angélica 54-92 - Saúde Salvador - BA Brazil","",-12.9752864837646,-38.5026359558105,,"",0,
44782816,"Vila Góes 45-77 - Nazaré Salvador - BA Brasil","",-12.9690675735474,-38.502857208252,,"",0,
44782744,"Av. José Joaquim Seabra 473-489 - Nazaré Salvador - BA 40040-346 Brasil","",-12.9695320129395,-38.5002136230469,,"",0,
44782758,"Rua Cônego Pereira 7 - Brotas Salvador - BA Brasil","",-12.9701528549194,-38.4987030029297,,"",0,
44782759,"Rua Cônego Pereira 49 - Brotas Salvador - BA Brazil","",-12.9690542221069,-38.4956703186035,,"",0,
45833326,"Av. Heitor Dias S/N - Brotas Salvador - BA Brasil","",-12.9664516448975,-38.4927520751953,,"",0,
43968724,"Avenida Heitor Dias 88 - Brotas Salvador - BA Brasil","",-12.9682531356812,-38.4880027770996,,"",0,
45833947,"Avenida Heitor Dias 172 - Cabula Salvador - BA Brasil","",-12.9688444137573,-38.4845848083496,,"",0,
44783797,"Avenida Barros Reis 1096 - Cabula Salvador - BA Brasil","",-12.963228225708,-38.4787445068359,,"",0,
44783796,"Avenida Barros Reis 2020 - Iapi Salvador - BA Brasil","",-12.9585857391357,-38.4767379760742,,"",0,
44783509,"Avenida Barros Reis 2622 - Iapi Salvador - BA Brasil","",-12.9557008743286,-38.4755516052246,,"",0,
43768240,"Avenida Barros Reis S/N - São Goncalo Salvador - BA Brasil","",-12.9515781402588,-38.4747924804688,,"",0,
43768310,"Av. Barros Réis 4069 - Fazenda Grande do Retiro Salvador - BA Brasil","",-12.9498653411865,-38.4728126525879,,"",0,
44782614,"Av. Barros Reis S/N - Arraial do Retiro Salvador - BA Brasil","",-12.9478626251221,-38.4712371826172,,"",0,
44783321,"Av. Barros Réis - Fazenda Grande do Retiro Salvador - BA 40350-500 Brasil","",-12.9426259994507,-38.4701385498047,,"",0,
44782655,"Rodovia Acesso para BR-324 S/N - São Caetano Salvador - BA 41227-320 Brasil","",-12.929651260376,-38.4692077636719,,"",0,
43768478,"Via BR-324 S/N - Jardim Santo Inacio Salvador - BA Brasil","",-12.9200878143311,-38.4656105041504,,"",0,
43768501_S,"Marginal Rodovia Br-324 - Jardim Santo Inacio Salvador - BA Brasil","",-12.9163846969604,-38.4620056152344,,"",1,
43768501,"Marginal Rodovia Br-324 - Jardim Santo Inacio Salvador - BA Brasil","",-12.9163846969604,-38.4620056152344,,"",0,43768501_S
44165065,"Terminal BRASILGÁS - Jardim Santo Inacio Salvador - BA Brasil","",-12.9154825210571,-38.4597434997559,,"",0,
45833438,"R. Estr. Velha do Aeroporto S/N - Jardim Cajazeiras Salvador - BA Brasil","",-12.9156999588013,-38.4540786743164,,"",0,
45833886,"Avenida Aliomar Baleeiro 1578 - Jardim Cajazeiras Salvador - BA Brasil","",-12.9126129150391,-38.4507102966309,,"",0,
44784059,"Av. Aliomar Baleeiro 1600-2014 - Jardim Cajazeiras Salvador - BA 41230-455 Brasil","",-12.9135904312134,-38.4469108581543,,"",0,
50102231,"Rua Jayme Vieira Lima 1-5 - São Marcos Salvador - BA Brasil","",-12.9158191680908,-38.4440155029297,,"",0,
44164922,"Rua Jayme Vieira Lima 41-45 - São Marcos Salvador - BA Brasil","",-12.9184551239014,-38.442985534668,,"",0,
44164923,"Largo de Pau da Lima 121 - São Marcos Salvador - BA 41245-800 Brasil","",-12.9204788208008,-38.4428634643555,,"",0,
46021777,"R. São Marcos 106-108 - São Marcos Salvador - BA 41253-281 Brasil","",-12.9232492446899,-38.4411506652832,,"",0,
44784235,"R. São Marcos 32 - São Marcos Salvador - BA 41253-190 Brasil","",-12.9251155853271,-38.4398994445801,,"",0,
44784083,"Rua São Marcos 2-6 - São Marcos Salvador - BA Brasil","",-12.9267339706421,-38.4367446899414,,"",0,
45832830,"Rua da Legalidade 567-597 - Pernambués Salvador - BA 41110-560 Brasil","TP ALTO DO CRUZEIRO",-12.9729442596436,-38.4534606933594,,"",0,
45832831,"Rua da Legalidade 311-371 - Pernambués Salvador - BA 41110-560 Brasil","",-12.9714412689209,-38.4548263549805,,"",0,
45832833,"Rua da Legalidade 140-158 - Pernambués Salvador - BA 41110-560 Brasil","",-12.96994972229,-38.4558334350586,,"",0,
45832835,"Rua da Legalidade 2-120 - Pernambués Salvador - BA 41110-560 Brasil","",-12.9689321517944,-38.4563293457031,,"",0,
45832836,"Rua Santa Verusa 77-123 - Pernambués Salvador - BA 41100-218 Brasil","",-12.9684381484985,-38.4566192626953,,"",0,
45833577_S,"TERMINAL DE PERNAMBUÉS","",-12.9684753417969,-38.4582633972168,,"",1,
45833577,"TERMINAL DE PERNAMBUÉS","",-12.9684753417969,-38.4582633972168,,"",0,45833577_S
45833578,"Rua Escritor Édison Carneiro 18-20 - Pernambués Salvador - BA 41130-490 Brasil","",-12.970630645752,-38.4600639343262,,"",0,
45832800,"Rua Thomaz Gonzaga 487 - Pernambués Salvador - BA Brasil","",-12.973162651062,-38.4582443237305,,"",0,
50735639,"Rua Thomaz Gonzaga 613-619 - Pernambués Salvador - BA Brasil","",-12.9752988815308,-38.4542427062988,,"",0,
46906857,"Condomínio Shopping Itaigara - Av. Antônio Carlos Magalhães 65 - Itaigara Salvador - BA 41857-900 Brasil","",-12.9776287078857,-38.4709320068359,,"",0,
46918881,"SHOPPING BELA VISTA","",-12.9695568084717,-38.4753303527832,,"",0,
66292237_S,"Avenida Antônio Carlos Magalhães Salvador - Bahia 40265 Brasil","TERM ACESSO NORTE",-12.9697866439819,-38.4782180786133,,"",1,
66292237,"Avenida Antônio Carlos Magalhães Salvador - Bahia 40265 Brasil","TERM ACESSO NORTE",-12.9697866439819,-38.4782180786133,,"",0,66292237_S
44739405,"Acesso dos Rodoviários - Pernambués Salvador - BA Brasil","",-12.9657526016235,-38.4714164733887,,"",0,
45832838,"Rua Thomaz Gonzaga 97-99 - Pernambués Salvador - BA Brasil","",-12.9655599594116,-38.4673347473145,,"",0,
44073249,"Rua Thomaz Gonzaga 163 - Pernambués Salvador - BA Brasil","",-12.966402053833,-38.4657211303711,,"",0,
45833572,"Rua Thomaz Gonzaga 221 - Pernambués Salvador - BA Brasil","",-12.9664831161499,-38.4633331298828,,"",0,
45833573,"Rua Thomaz Gonzaga 279 - Pernambués Salvador - BA Brasil","",-12.9678382873535,-38.4619674682617,,"",0,
44783966,"Rua Thomaz Gonzaga 295a - Pernambués Salvador - BA Brasil","",-12.9710998535156,-38.4606895446777,,"",0,
45832843,"Rua Escritor Édison Carneiro 45 - Pernambués Salvador - BA 41130-490 Brasil","",-12.9699296951294,-38.4594802856445,,"",0,
45832834,"Rua da Legalidade 2-120 - Pernambués Salvador - BA 41110-560 Brasil","",-12.9694194793701,-38.4560279846191,,"",0,
45832839,"Rua da Legalidade 226-242 - Pernambués Salvador - BA 41110-560 Brasil","",-12.9707336425781,-38.4556503295898,,"",0,
45832832,"Rua da Legalidade 373-473 - Pernambués Salvador - BA 41110-560 Brasil","",-12.9718799591064,-38.4543914794922,,"",0,
44042532_S,"Rua Da Estação Nova Esperança Salvador - Bahia 41230 Brasil","TP ESTAÇÃO PIRAJÁ",-12.9259386062622,-38.4648895263672,,"",1,
44042532,"Rua Da Estação Nova Esperança Salvador - Bahia 41230 Brasil","TP ESTAÇÃO PIRAJÁ",-12.9259386062622,-38.4648895263672,,"",0,44042532_S
44782893,"Rua da Indonésia 912-1002 - Granjas Rurais Presidente Vargas Salvador - BA Brasil","",-12.9234418869019,-38.4615783691406,,"",0,
44783001,"Av. Cardeal Avelar Brandão Villela 2612-2696 - Jardim Santo Inacio Salvador - BA Brasil","",-12.9212284088135,-38.4608955383301,,"",0,
46906951,"Avenida Cardeal Avelar Brandão Vilela S/N - Jardim Santo Inacio Salvador - BA 41290-550 Brasil","",-12.9184103012085,-38.4609909057617,,"",0,
45833128,"Av. Aliomar Baleeiro 706 - Jardim Santo Inacio Salvador - BA Brasil","",-12.9176483154297,-38.4585800170898,,"",0,
45833141,"Avenida Aliomar Baleeiro 1002-1026 - Jardim Cajazeiras Salvador - BA Brasil","",-12.9166164398193,-38.4559593200684,,"",0,
43968818,"Rua Genaro De Carvalho 2 Salvador - Bahia 41230 Brasil","",-12.9119338989258,-38.4502944946289,,"",0,
50102232,"Avenida Genaro de Carvalho 554 - Castelo Branco Salvador - BA Brasil","",-12.9075717926025,-38.4493522644043,,"",0,
316207431,"Rua Genaro De Carvalho 759 Salvador - Bahia 41315 Brasil","",-12.9081726074219,-38.4462623596191,,"",0,
47567983,"Rua Genaro de Carvalho 1214 - Dom Avelar Salvador - BA 41315-290 Brasil","",-12.9075860977173,-38.4437942504883,,"",0,
44783853,"Rua Genaro de Carvalho 1480-1558 - Dom Avelar Salvador - BA 41315-290 Brasil","",-12.9050264358521,-38.4415855407715,,"",0,
44165037,"Via Castelo Branco Salvador - Bahia 41322 Brasil","",-12.9051694869995,-38.4393882751465,,"",0,
45833372,"Rua H-Qd 12- Castelo Branco - 3ª Etapa - Setor 01 6-62 - Castelo Branco Salvador - BA Brasil","",-12.9055995941162,-38.4389495849609,,"",0,
44783845,"R. Via Castelo Branco S/N - Vila Canária Salvador - BA Brasil","",-12.9049625396729,-38.4374847412109,,"",0,
333316440,"Via Castelo Branco Salvador - Bahia 41322 Brasil","",-12.9025735855103,-38.4358940124512,,"",0,
44783838,"Via Castelo Branco 1046-1094 - Castelo Branco Salvador - BA 41322-225 Brasil","",-12.9017362594604,-38.4334869384766,,"",0,
48219623,"Via Castelo Branco 1332 - Castelo Branco Salvador - BA Brasil","",-12.9015731811523,-38.4309577941895,,"",0,
333316441,"Via Castelo Branco Salvador - Bahia 41322 Brasil","",-12.9035482406616,-38.429313659668,,"",0,
45834559,"Via Castelo Branco 1808-1852 - Castelo Branco Salvador - BA 41322-225 República Federativa do Brasil","",-12.9041833877563,-38.4284248352051,,"",0,
48219627,"Rua Via Castelo Branco S/N - Castelo Branco Salvador - BA 41321-570 Brasil","",-12.9022541046143,-38.4276580810547,,"",0,
45833841,"R. Regional 16-70 - Cajazeiras 6 Salvador - BA Brasil","",-12.9004259109497,-38.4283180236816,,"",0,
45833809,"R. Via Regional S/N - Castelo Branco Salvador - BA Brasil","",-12.8995513916016,-38.4262886047363,,"",0,
47568028,"Rua Álvaro da Franca Rocha 84 - Cajazeiras 5 Salvador - BA 41334-320 Brasil","",-12.8981513977051,-38.4257469177246,,"",0,
44783573,"Rua Álvaro da Franca Rocha 12 - Cajazeiras 5 Salvador - BA Brasil","",-12.89466381073,-38.4230270385742,,"",0,
45832942,"R. Cel. Azevedo S/N - Cajazeiras 5 Salvador - BA 41310-295 Brasil","",-12.8936233520508,-38.4210510253906,,"",0,
372064439,"Rua Deputado Herculano Menezes Salvador - Bahia 41338 Brasil","",-12.8961610794067,-38.4157066345215,,"",0,
44782645,"Rotatória Acesso para s/n - Cajazeiras Salvador - BA 41340-050 Brasil","",-12.8994579315186,-38.4129638671875,,"",0,
303336341,"Estrada Da Paciência 2199 Salvador - Bahia 41338 Brasil","",-12.9004592895508,-38.414722442627,,"",0,
45834367,"Estr. da Paciência 31 - Cajazeiras 8 Salvador - BA 41338-700 Brasil","",-12.9019107818604,-38.4197273254395,,"",0,
45833086,"Estr. da Paciência 23 - Cajazeiras 8 Salvador - BA 41338-700 Brasil","TP CAJAZEIRAS 8",-12.9019823074341,-38.4203987121582,,"",0,
100009577,"Estrada Da Paciência 10 Salvador - Bahia 41338 Brasil","",-12.9019536972046,-38.4195823669434,,"",0,
345936831,"Estrada Da Paciência 16 Salvador - Bahia 41338 Brasil","",-12.9020509719849,-38.4171142578125,,"",0,
45833961,"Estr. da Paciência 20 - Cajazeiras 8 Salvador - BA 41338-700 Brasil","",-12.9006099700928,-38.4159927368164,,"",0,
45833092,"Tv. da Mangabeira 83-93 - Cajazeiras 8 Salvador - BA Brasil","",-12.9016132354736,-38.4137535095215,,"",0,
45833959,"R. Direta da Mangabeira 38-44 - Cajazeiras 8 Salvador - BA 41338-710 Brasil","",-12.9023838043213,-38.4133834838867,,"",0,
45833089,"R Direta Mangabeira - Cajazeira VIII - Cajazeiras Salvador - BA 41320-020 Brasil","",-12.9053449630737,-38.4121856689453,,"",0,
45833743,"Rua Estr. da Paciência S/N - Cajazeiras Salvador - BA 41342-315 Brasil","",-12.8995513916016,-38.4104537963867,,"",0,
44782648,"Av. Engenheiro Raymundo Carlos Nery 1 - Cajazeiras Salvador - BA Brasil","",-12.8991546630859,-38.4079627990723,,"",0,
45833440,"Rua A 3 Salvador - Bahia 41340 Brasil","",-12.8967409133911,-38.4086723327637,,"",0,
66771046,"R. Dep. Herculano Menezes 116 - Cajazeiras Salvador - BA Brasil","",-12.8967895507813,-38.412540435791,,"",0,
44782643,"R. Dep. Herculano Menezes 1431 - Cajazeiras 8 Salvador - BA Brasil","",-12.8934764862061,-38.4210166931152,,"",0,
44783571,"Rua Álvaro da Franca Rocha 5-13 - Cajazeiras 5 Salvador - BA Brasil","",-12.8943223953247,-38.422966003418,,"",0,
45834154,"Av. Bb 3 - Cajazeiras 4 Salvador - BA 41342-430 Brasil","",-12.8978424072266,-38.4256324768066,,"",0,
346638856,"Rua 24 Quadra 10 1 Salvador - Bahia 41310 Brasil","",-12.8999662399292,-38.4332656860352,,"",0,
346638854,"Via Regional Salvador - Bahia 41320 Brasil","",-12.9002170562744,-38.4349670410156,,"",0,
346638855,"Via Regional Salvador - Bahia 41320 Brasil","",-12.9001998901367,-38.4322509765625,,"",0,
44784177,"Rua Regional 61 - Cajazeiras VI Salvador - BA Brasil","",-12.9000663757324,-38.428295135498,,"",0,
47566232,"R. Edgar Sanches 29-71 - Castelo Branco Salvador - BA 41321-465 Brasil","",-12.9030952453613,-38.4289207458496,,"",0,
44164913,"Rua José Lima Piauí Dourado 54-108 - Castelo Branco Salvador - BA 41321-505 Brasil","",-12.9011383056641,-38.4310264587402,,"",0,
45834182,"Via Castelo Branco 1001 - Castelo Branco Salvador - BA República Federativa do Brasil","",-12.9017496109009,-38.4339179992676,,"",0,
50100254,"R. Via Castelo Branco S/N - Castelo Branco Salvador - BA Brasil","",-12.9032306671143,-38.4370994567871,,"",0,
333520835,"Via Castelo Branco Salvador - Bahia 41322 Brasil","",-12.9049835205078,-38.4394683837891,,"",0,
47566235,"R. Via Castelo Branco S/N - Castelo Branco Salvador - BA Brasil","",-12.9044437408447,-38.4412040710449,,"",0,
45833365,"Avenida Genaro de Carvalho 300 - Castelo Branco Salvador - BA Brasil","",-12.9075946807861,-38.443977355957,,"",0,
316202408,"Rua Genaro De Carvalho 759 Salvador - Bahia 41315 Brasil","",-12.9081134796143,-38.4459266662598,,"",0,
46022136,"Rua Genaro de Carvalho 447-553 - Dom Avelar Salvador - BA Brasil","",-12.9075202941895,-38.4494552612305,,"",0,
45833278,"Av. Aliomar Baleeiro 581-639 - Jardim Cajazeiras Salvador - BA 41230-455 Brasil","",-12.9175863265991,-38.4589233398438,,"",0,
45834589,"R. do Paquistão 12 - Granjas Rurais Pres. Varg Salvador - BA 41230-050 Brasil","",-12.9189195632935,-38.4615287780762,,"",0,
45833304,"Av. Cardeal Avelar Brandão Villela 2581-2609 - Jardim Santo Inacio Salvador - BA Brasil","",-12.9220504760742,-38.4607086181641,,"",0,
46022142,"Rua Da Indonésia 1081 Salvador - Bahia 41230 Brasil","",-12.923357963562,-38.4618759155273,,"",0,
45832840,"Rua Thomaz Gonzaga 284-310 - Pernambués Salvador - BA Brasil","",-12.9684257507324,-38.4618225097656,,"",0,
45833571,"Rua Thomaz Gonzaga 198 - Pernambués Salvador - BA Brasil","",-12.9663610458374,-38.4634590148926,,"",0,
45832819,"Rua Thomaz Gonzaga 166-170 - Pernambués Salvador - BA Brasil","",-12.9663915634155,-38.4649925231934,,"",0,
45832820,"Rua Thomaz Gonzaga 118-134 - Pernambués Salvador - BA Brasil","",-12.9657192230225,-38.4668464660645,,"",0,
45832822,"Rua Thomaz Gonzaga 32 - Pernambués Salvador - BA 40301-110 Brasil","",-12.965311050415,-38.4709129333496,,"",0,
309461794,"Avenida Oceânica 705 Salvador - Bahia 40140 Brasil","",-13.0092725753784,-38.5253486633301,,"",0,
44782851,"Condomínio Edifício Caravelas - R. Marquês de Caravelas 560 - Barra Salvador - BA 40140-240 Brasil","",-13.0074310302734,-38.5265350341797,,"",0,
44165314,"Rua Marquês de Caravelas 429 - Barra Salvador - BA 40140-241 Brasil","",-13.0064973831177,-38.5268020629883,,"",0,
44165315,"R. Marquês de Caravelas 265 - Barra Salvador - BA 40140-240 Brasil","",-13.005542755127,-38.5280456542969,,"",0,
44165316,"Condomínio Edifício Mansao D Alameda - Alameda Antunes 1 - Barra Avenida Salvador - BA 40130-020 Brasil","",-13.0037927627563,-38.5298156738281,,"",0,
47568471,"Av. Princesa Isabel 914 - Graça Salvador - BA Brasil","",-13.0024375915527,-38.5245933532715,,"",0,
44784119,"Condomínio Residencial Veredas da Graça - Av. Euclydes da Cunha 766 - Graça Salvador - BA 40150-120 Brasil","",-12.9991674423218,-38.5233116149902,,"",0,
43768806,"Av. Euclydes da Cunha 45 - Graça Salvador - BA 40150-122 Brasil","",-12.9983911514282,-38.5212593078613,,"",0,
44165320,"Av. Euclydes da Cunha 87-89 - Graça Salvador - BA 40150-122 Brasil","",-12.9976253509521,-38.5191421508789,,"",0,
44165321,"R. Padre Feijó 409-441 - Canela Salvador - BA 40110-170 Brazil","",-12.9947671890259,-38.5174942016602,,"",0,
44782686,"R. Padre Feijó 351 - Canela Salvador - BA 40110-170 Brazil","",-12.9943084716797,-38.5181159973145,,"",0,
44165322,"R. João das Botas 291 - Canela Salvador - BA Brasil","",-12.9921407699585,-38.5203056335449,,"",0,
376991599,"Largo Campo Grande 584 Salvador - Bahia 40080-121 Brasil","",-12.9890985488892,-38.5201187133789,,"",0,
44783906,"Avenida Lafayete Coutinho 515-733 - Comércio Salvador - BA Brasil","",-12.9786214828491,-38.5169525146484,,"",0,
44783914,"Rua da Conceição da Praia - Comercio Salvador - BA Brasil","",-12.9740419387817,-38.5136909484863,,"",0,
44783910,"Av. Jequitaia 12-14 - Calçada Salvador - BA 40411-120 Brazil","",-12.969012260437,-38.510124206543,,"",0,
44783913,"Acesso para o Túnel Américo Simas-D - Comercio Salvador - BA Brazil","",-12.9661827087402,-38.5080986022949,,"",0,
44783554,"Tv. do Aquidabã 3 - Santo Antônio Além do Carmo Salvador - BA Brasil","",-12.9682006835938,-38.5041427612305,,"",0,
47568122,"Av. Sete de Setembro 1484-1514 - Dois de Julho Salvador - BA 40060-002 Brazil","",-12.9877529144287,-38.5219306945801,,"",0,
44072192,"Largo Campo Grande 584 Salvador - Bahia 40080-121 Brasil","",-12.9891633987427,-38.5201301574707,,"",0,
45834753,"Av. Cardeal Avelar Brandão Villela 2219-2235 - Jardim Santo Inacio Salvador - BA Brasil","",-12.9253511428833,-38.4597244262695,,"",0,
44783344,"Avenida Cardeal Avelar Brandão Vilela S/N - Mata Escura Salvador - BA 41231-130 Brasil","",-12.9264249801636,-38.4586982727051,,"",0,
45833160,"Avenida Cardeal Avelar Brandão Vilela S/N - Mata Escura Salvador - BA 41220-440 Brasil","",-12.9281511306763,-38.4561157226563,,"",0,
46021842,"Av. Cardeal Avelar Brandão Villela 39 - Mata Escura Salvador - BA 41205-006 Brasil","",-12.9312753677368,-38.4577713012695,,"",0,
46906952,"R. Direta da Mata Escura 23 - Mata Escura Salvador - BA 41225-190 Brasil","",-12.9326019287109,-38.4581680297852,,"",0,
45834242,"Rua Acelino José da Encarnação 298 - Mata Escura Salvador - BA 41220-845 Brasil","",-12.9342021942139,-38.4602661132813,,"",0,
45834241,"Rua Direta da Mata Escura 589","",-12.9361000061035,-38.4614486694336,,"",0,
45834240,"R. Direta da Mata Escura 719-727 - Mata Escura Salvador - BA 41225-190 Brasil","",-12.9364109039307,-38.4629173278809,,"",0,
45834852_S,"Rua Benjamin Abdon 218-334 - Mata Escura Salvador - BA 41219-040 Brasil","TP MATA ESCURA",-12.9378538131714,-38.4610710144043,,"",1,
45834852,"Rua Benjamin Abdon 218-334 - Mata Escura Salvador - BA 41219-040 Brasil","TP MATA ESCURA",-12.9378538131714,-38.4610710144043,,"",0,45834852_S
44784379,"R. Direta da Mata Escura 720-728 - Mata Escura Salvador - BA 41225-190 Brasil","",-12.936466217041,-38.4625930786133,,"",0,
45834850,"R. João Ângelo de Barros 1-87 - Mata Escura Salvador - BA 41219-870 Brasil","",-12.936089515686,-38.4611167907715,,"",0,
44782665,"Rua Acelino José da Encarnação 297 - Mata Escura Salvador - BA 41220-845 Brasil","",-12.9341812133789,-38.4601554870605,,"",0,
44782661,"R. Direta da Mata Escura 2-10 - Mata Escura Salvador - BA 41225-190 Brasil","",-12.9325914382935,-38.4578247070313,,"",0,
45833161,"Av. Cardeal Avelar Brandão Villela 2152-2154 - Tancredo Neves Salvador - BA 41205-006 Brasil","",-12.9310455322266,-38.4575271606445,,"",0,
45833285,"Avenida Cardeal Avelar Brandão Vilela S/N - Sussuarana Salvador - BA 41290-550 Brasil","",-12.9280977249146,-38.4559211730957,,"",0,
46907107,"Av. Cardeal Avelar Brandão Villela 2206-2208 - Jardim Santo Inacio Salvador - BA 41231-400 Brasil","",-12.9264183044434,-38.4584312438965,,"",0,
45833817,"Avenida Cardeal Avelar Brandão Vilela 1717 - Jardim Santo Inacio Salvador - BA 41290-550 Brasil","",-12.9256286621094,-38.4593544006348,,"",0,
45833374,"R. do Paquistão 356-554 - Granjas Rurais Pres. Vargas Salvador - BA Brasil","",-12.9218463897705,-38.4648780822754,,"",0,
44784063,"001610 - Omã - Jardim Santo Inacio Salvador - BA 41320-810 Brasil","",-12.9198808670044,-38.4650840759277,,"",0,
44783267,"Av. Aliomar Baleeiro 2662-2670 - Vila Canária Salvador - BA Brasil","",-12.9148149490356,-38.4414291381836,,"",0,
45834695,"Av. Aliomar Baleeiro 2882-2920 - Sete de Abril Salvador - BA 41385-160 Brasil","",-12.9149122238159,-38.4396057128906,,"",0,
44784099,"Av. Aliomar Baleeiro 28-102 - Sete de Abril Salvador - BA Brasil","",-12.9166898727417,-38.436450958252,,"",0,
45833131,"R. Nossa Sra. do Carmo 52-62 - Sete de Abril Salvador - BA Brasil","",-12.9145431518555,-38.4328765869141,,"",0,
45833134,"R. Nossa Sra. do Carmo 444-490 - Sete de Abril Salvador - BA Brasil","",-12.9133615493774,-38.430908203125,,"",0,
45832983,"R. Nossa Sra. do Carmo 34 - Sete de Abril Salvador - BA 41385-040 Brasil","",-12.9123811721802,-38.4298629760742,,"",0,
45832950,"R. Primavera 2-104 - Sete de Abril Salvador - BA 41385-665 Brasil","",-12.9112119674683,-38.4289016723633,,"",0,
44782884,"R. Nossa Sra. do Carmo 940-944 - Sete de Abril Salvador - BA Brasil","",-12.9102993011475,-38.4279403686523,,"",0,
47566312_S,"R. Nossa Sra. do Carmo - Sete de Abril Salvador - BA Brasil","TP SETE DE ABRIL",-12.910605430603,-38.426212310791,,"",1,
47566312,"R. Nossa Sra. do Carmo - Sete de Abril Salvador - BA Brasil","TP SETE DE ABRIL",-12.910605430603,-38.426212310791,,"",0,47566312_S
45834696,"R. Nossa Sra. do Carmo 793-937 - Sete de Abril Salvador - BA 41385-040 Brasil","",-12.9103841781616,-38.4281806945801,,"",0,
45834129,"R. Nossa Sra. do Carmo 723-767 - Sete de Abril Salvador - BA 41385-040 Brasil","",-12.9112749099731,-38.4291763305664,,"",0,
45833355,"R. Nossa Sra. do Carmo 673-675 - Sete de Abril Salvador - BA 41385-040 Brasil","",-12.912055015564,-38.429744720459,,"",0,
45833353,"R. Nossa Sra. do Carmo 49-63 - Sete de Abril Salvador - BA Brasil","",-12.9132709503174,-38.4309883117676,,"",0,
45833132,"R. Nossa Sra. do Carmo 45-49 - Sete de Abril Salvador - BA Brasil","",-12.9147548675537,-38.4329109191895,,"",0,
44783558,"Rua Estr. Velha do Aeroporto S/N - Sete de Abril Salvador - BA 41301-110 Brasil","",-12.9166078567505,-38.4363059997559,,"",0,
44783275,"Av. Aliomar Baleeiro 2817-2879 - Vila Canária Salvador - BA Brasil","",-12.9144792556763,-38.439754486084,,"",0,
317725627,"Estrada Campinas 80 Salvador - Bahia 41270 Brasil","",-12.9293832778931,-38.470027923584,,"",0,
45833196,"Largo do Retiro 121-219 - São Gonçalo do Retiro Salvador - BA 40354-190 Brasil","",-12.9511260986328,-38.4757041931152,,"",0,
44784021,"Avenida General San Martin 53 - Iapi Salvador - BA Brasil","",-12.9501981735229,-38.4777526855469,,"",0,
175084352,"Avenida General San Martin 89 Fazenda Grande do Retiro Salvador - BA 40342-030 Brasil","",-12.9495048522949,-38.4780654907227,,"",0,
44782766,"Avenida General San Martin 520-638 - Curuzu Salvador - BA 40354-185 Brasil","",-12.9480619430542,-38.4790725708008,,"",0,
45833206,"Avenida General San Martin 68 - Santa Monica Salvador - BA Brazil","",-12.9472627639771,-38.4806289672852,,"",0,
47567876,"Av. Gen. San Martin 244 - San Martin Salvador - BA 40355-025 Brasil","",-12.9433469772339,-38.4839210510254,,"",0,
44782763,"Av. Gen. San Martin 355 - Curuzu Salvador - BA 40354-185 Brasil","",-12.9420375823975,-38.4848899841309,,"",0,
45833902,"Av. San Martim S/N - Alto do Peru Salvador - BA Brazil","",-12.9397306442261,-38.488151550293,,"",0,
45834138,"Avenida General San Martin 450 Salvador - Bahia 40355 Brasil","",-12.9398670196533,-38.4894561767578,,"",0,
44165139,"Av. Suburbana S/N - Calcada Salvador - BA Brasil","",-12.9399080276489,-38.4942283630371,,"",0,
43768313,"R. Rua Luiz Maria S/N - Calcada Salvador - BA Brasil","",-12.9411821365356,-38.4966316223145,,"",0,
44783387,"Rua Imperador S/N - Calcada Salvador - BA Brasil","",-12.942741394043,-38.4995460510254,,"",0,
45833212,"Largo dos Mares 5 - Mares Salvador - BA 40445-026 Brazil","",-12.9448432922363,-38.5008239746094,,"",0,
44782796,"Av. Eng. Oscar Pontes 1373-1441 - Calçada Salvador - BA Brazil","",-12.9500980377197,-38.5014114379883,,"",0,
45833833,"Av. Eng. Oscar Pontes 1039-1069 - Calçada Salvador - BA Brazil","",-12.9527759552002,-38.5016593933105,,"",0,
44782416,"Av. Eng. Oscar Pontes 1707-1789 - Calçada Salvador - BA Brazil","",-12.9558115005493,-38.5025596618652,,"",0,
45832947,"Av. Eng. Oscar Pontes 1357-1467 - Calçada Salvador - BA Brazil","",-12.9584398269653,-38.5039176940918,,"",0,
43768287,"Av. Eng. Oscar Pontes 2-136 - Calçada Salvador - BA Brasil","",-12.9604320526123,-38.5059356689453,,"",0,
44782415,"Av. Jequitaia 98-116 - Calçada Salvador - BA 40411-120 Brazil","",-12.9632663726807,-38.5053405761719,,"",0,
44782485,"Av. Jequitaia 1-67 - Calçada Salvador - BA Brazil","",-12.9611520767212,-38.5038948059082,,"",0,
44782486,"Avenida Jequitaia 1113 - Água de Meninos Salvador - BA Brasil","",-12.9586610794067,-38.5025062561035,,"",0,
44165150,"Av. Jequitaia 243 - Calçada Salvador - BA Brazil","",-12.9546985626221,-38.5014877319336,,"",0,
44783720,"Av. Jequitaia 362-380 - Calçada Salvador - BA 40411-120 Brazil","",-12.9500074386597,-38.5009078979492,,"",0,
45833204,"Largo da Calçada 64-116 - Calçada Salvador - BA 40411-366 Brazil","",-12.9466972351074,-38.5002059936523,,"",0,
44783722,"Rua Nilo Peçanha 87 - Liberdade Salvador - BA Brasil","",-12.9459362030029,-38.498104095459,,"",0,
44783721,"Rua Nilo Peçanha 213 - Calcada Salvador - BA Brasil","",-12.9427356719971,-38.4963531494141,,"",0,
44783743,"R. Rua Nilo Peçanha S/N - Calcada Salvador - BA Brasil","",-12.9409027099609,-38.4943199157715,,"",0,
44783734,"Rua Largo do Tanque S/N - Liberdade Salvador - BA 40327-050 Brasil","",-12.9404058456421,-38.4905281066895,,"",0,
45833229,"Av. San Martim S/N - Curuzu Salvador - BA Brasil","",-12.9409847259521,-38.4867630004883,,"",0,
45833223,"Av. Gen. San Martin 288 - Curuzu Salvador - BA 40355-720 Brasil","",-12.9423332214355,-38.4848098754883,,"",0,
44165196,"Av. Gen. San Martin 180 - Curuzu Salvador - BA Brasil","",-12.9475078582764,-38.4805297851563,,"",0,
44782769,"Av. Gen. San Martin 339-401 - Curuzu Salvador - BA 40354-185 Brasil","",-12.9502668380737,-38.4781494140625,,"",0,
44389049_S,"R. Hildegardes Viana 86 - Cajazeiras 11 Salvador - BA 41341-020 Brasil","TP CAJAZEIRAS 11",-12.8910131454468,-38.4149513244629,,"",1,
44389049,"R. Hildegardes Viana 86 - Cajazeiras 11 Salvador - BA 41341-020 Brasil","TP CAJAZEIRAS 11",-12.8910131454468,-38.4149513244629,,"",0,44389049_S
44782651,"Rua D S/N - Cajazeiras Salvador - BA 41330-030 Brasil","",-12.889310836792,-38.4143104553223,,"",0,
45833419,"Rua Teodolina Macêdo Campos 241-267 - Cajazeiras 11 Salvador - BA 41341-010 Brazil","",-12.8872528076172,-38.4148483276367,,"",0,
45833421,"Rua Teodolina Macêdo Campos 79-103 - Cajazeiras 11 Salvador - BA Brazil","",-12.8857860565186,-38.4147338867188,,"",0,
44782641,"Rua Teodolina Macêdo Campos 11 - Cajazeiras 11 Salvador - BA Brazil","",-12.8834095001221,-38.4146423339844,,"",0,
45833424,"Rua Juscelino Kubitscheck 1489-1555 - Cajazeiras Salvador - BA 41330-030 Brasil","",-12.8813009262085,-38.4138259887695,,"",0,
45833425,"Rua Juscelino Kubitscheck 1161-1243 - Cajazeiras Salvador - BA 41341-520 Brasil","",-12.8818101882935,-38.4112167358398,,"",0,
45833427,"R. Jorn. José Curvello 50 - Cajazeiras 11 Salvador - BA 41341-530 Brasil","",-12.8851194381714,-38.4109497070313,,"",0,
45833429,"Rua Jornalista José Curvello 112-126 - Cajazeiras Salvador - BA 41341-670 Brasil","",-12.8861570358276,-38.4119682312012,,"",0,
45833431,"100 - R. Jorn. José Curvello 82 - Cajazeiras 11 Salvador - BA 41341-530 Brasil","",-12.8835573196411,-38.409496307373,,"",0,
45834592,"R. Juscelino Kubitscheck 715-787 - Cajazeiras 11 Salvador - BA Brasil","",-12.8826208114624,-38.4084396362305,,"",0,
44782646,"R. Juscelino Kubitscheck 72 - Cajazeiras 11 Salvador - BA 41330-400 Brasil","",-12.8824167251587,-38.407096862793,,"",0,
45834180,"Rua Juscelino Kubitscheck 47 - Cajazeiras XI Salvador - BA 41330-400 Brazil","",-12.8854856491089,-38.4067573547363,,"",0,
44782629,"R. Juscelino Kubitscheck 35 - Boca da Mata Salvador - BA Brasil","",-12.8881540298462,-38.4064636230469,,"",0,
45833435,"Av. Engenheiro Raymundo Carlos Nery 969-1011 - Cajazeiras Salvador - BA 41339-060 Brasil","",-12.8912572860718,-38.4083061218262,,"",0,
45834181,"Av. Engenheiro Raymundo Carlos Nery 480-798 - Cajazeiras Salvador - BA 41339-050 Brasil","",-12.8951187133789,-38.4090728759766,,"",0,
44783526,"R. Fernandes da Cunha  S/N - Calcada Salvador - BA Brasil","",-12.9414749145508,-38.501651763916,,"",0,
44783304,"Rua Fernandes da Cunha 294 - Calcada Salvador - BA Brasil","",-12.9395275115967,-38.5031852722168,,"",0,
46022220,"Avenida Fernandes da Cunha 127 - Calcada Salvador - BA Brasil","",-12.9372577667236,-38.5049209594727,,"",0,
44783027,"Avenida Dendezeiros do Bonfim 33-99 - Roma Salvador - BA Brasil","",-12.9335784912109,-38.506950378418,,"",0,
45833413,"Avenida Dendezeiros do Bonfim 33-99 - Roma Salvador - BA Brasil","",-12.932315826416,-38.5070838928223,,"",0,
45833414,"Av. Dendezeiros do Bonfim 163-169 - Roma Salvador - BA 40444-130 Brasil","",-12.928915977478,-38.5074882507324,,"",0,
43768681,"Largo da Baixa do Bonfim 44-178 - Bonfim Salvador - BA Brasil","",-12.9254398345947,-38.5077056884766,,"",0,
44783247,"R. Travasso de Fora S/N - Bonfim Salvador - BA Brasil","",-12.9244508743286,-38.5059509277344,,"",0,
43768574,"Rua Travasso de Fora 91 - Caminho de Areia Salvador - BA 40415-285 Brasil","",-12.9240474700928,-38.504280090332,,"",0,
59406690,"R. Visc. de Caravelas 9-15 - Ribeira Salvador - BA Brasil","",-12.9221811294556,-38.5028648376465,,"",0,
44783944,"Rua Visconde de Caravelas 95 - Ribeira Salvador - BA Brasil","",-12.9173984527588,-38.499267578125,,"",0,
45833522,"R. Leliz Piedade  S/N - Ribeira Salvador - BA Brasil","",-12.9157876968384,-38.4969940185547,,"",0,
45833527,"R. Leliz Piedade  S/N - Ribeira Salvador - BA Brasil","",-12.9146528244019,-38.4960174560547,,"",0,
44783937,"Rua Júlio David 28 - Ribeira Salvador - BA 40420-230 Brasil","",-12.9146108627319,-38.4945220947266,,"",0,
44387683,"Porto Rua dos Tainheiros 145 Bahia Brasil","",-12.9140510559082,-38.4922332763672,,"",0,
45833534,"R. dos Tamarindeiros da Penha S/N - Ribeira Salvador - BA Brasil","",-12.9124307632446,-38.4930458068848,,"",0,
44387685,"Largo da Ribeirão 340 - Ribeira Salvador - BA Brasil","TS RIBEIRA",-12.9123392105103,-38.4940986633301,,"",0,
43768698,"Rua Lélis Piedade 160 - Ribeira Salvador - BA Brasil","",-12.9137487411499,-38.4955940246582,,"",0,
43768685,"Rua Léllis Piedade 102 - Ribeira Salvador - BA 40420-190 Brasil","",-12.9147815704346,-38.4963111877441,,"",0,
43768699,"Largo da Madragoa 6 - Ribeira Salvador - BA 40420-180 Brasil","",-12.916862487793,-38.4988594055176,,"",0,
44783946,"Rua Visconde de Caravelas 52-54 - Ribeira Salvador - BA 40420-160 Brasil","",-12.9189548492432,-38.5010375976563,,"",0,
43768683,"R. Visconde de Caravelas S/N - Ribeira Salvador - BA Brasil","",-12.9210557937622,-38.5022926330566,,"",0,
44387691,"R. Travasso de Fora S/N - Bonfim Salvador - BA Brasil","",-12.9239835739136,-38.5043640136719,,"",0,
45834435,"Rua Travasso de Fora 22 - Caminho de Areia Salvador - BA 40415-285 Brasil","",-12.9242963790894,-38.5060882568359,,"",0,
44387692,"Baixa Largo da do Bonfim 83 - Bonfim Salvador - BA Brasil","",-12.924991607666,-38.5077743530273,,"",0,
45833908,"Av. Bomfim  S/N - Bonfim Salvador - BA Brasil","",-12.9272937774658,-38.5078353881836,,"",0,
49062650,"Av. Bomfim  S/N - Boa Viagem Salvador - BA Brasil","",-12.9301404953003,-38.5074653625488,,"",0,
45833412,"Avenida Bonfim 132 - Boa Viagem Salvador - BA Brasil","",-12.9320812225342,-38.5072212219238,,"",0,
44782353,"Av. Luiz Tarquínio 12 - Roma Salvador - BA 40414-120 Brasil","",-12.9358577728271,-38.5074462890625,,"",0,
45834149,"R. Frederico Lisboa 21 - Mares Salvador - BA 40445-071 Brasil","",-12.9380702972412,-38.5050201416016,,"",0,
44165440,"Avenida Fernandes da Cunha 427-469 - Mares Salvador - BA 40445-201 Brasil","",-12.9394388198853,-38.5033645629883,,"",0,
44165441,"Av. Fernandes da Cunha 14-20 - Mares Salvador - BA 40445-200 Brasil","",-12.9414329528809,-38.5019721984863,,"",0,
44783745,"R. Fernandes Viêira 51-95 - Mares Salvador - BA 40411-560 Brasil","",-12.9434242248535,-38.4989738464355,,"",0,
45834189,"Praça Teive e Argollo 51-109 - Mares Salvador - BA 40450-040 Brasil","",-12.9409666061401,-38.4973831176758,,"",0,
44783512,"Travessa Régis Pachêco 2-110 - Uruguai Salvador - BA Brasil","",-12.9392395019531,-38.4961242675781,,"",0,
44783548,"Rua Luiz Régis Pacheco 90 - Uruguai Salvador - BA 40451-360 Brasil","",-12.9369421005249,-38.49462890625,,"",0,
44782770,"Avenida General San Martin 232 - Curuzu Salvador - BA Brasil","",-12.9443988800049,-38.4836196899414,,"",0,
47567994,"Rua Genaro de Carvalho 1214 - Dom Avelar Salvador - BA 41315-290 Brasil","",-12.9075841903687,-38.4437942504883,,"",0,
45833436,"Av. Engenheiro Raymundo Carlos Nery 480-798 - Cajazeiras Salvador - BA 41339-050 Brasil","",-12.8956327438354,-38.4088935852051,,"",0,
45833434,"Av. Engenheiro Raymundo Carlos Nery 970-1012 - Cajazeiras Salvador - BA 41339-050 Brasil","",-12.8912935256958,-38.4081840515137,,"",0,
45834186,"R. Juscelino Kubitscheck 35 - Boca da Mata Salvador - BA Brasil","",-12.8877563476563,-38.4062767028809,,"",0,
45834594,"Rua Juscelino Kubitschek S/N - Cajazeiras Salvador - BA 41330-030 Brasil","",-12.8861675262451,-38.4062271118164,,"",0,
45834595,"R. Juscelino Kubitscheck 88-110 - Cajazeiras 11 Salvador - BA Brasil","",-12.8827390670776,-38.4063148498535,,"",0,
45834169,"R. Juscelino Kubitscheck 716-788 - Cajazeiras 11 Salvador - BA Brasil","",-12.8823394775391,-38.4079627990723,,"",0,
45833426,"Rua Juscelino Kubitscheck 1161-1243 - Cajazeiras Salvador - BA 41341-520 Brasil","",-12.8816680908203,-38.4111633300781,,"",0,
45834190,"Rua Juscelino Kubitscheck 1490-1556 - Cajazeiras Salvador - BA 41330-030 Brasil","",-12.8811149597168,-38.4138221740723,,"",0,
45834170,"Rua D 132 - Cajazeiras Salvador - BA 41330-030 Brasil","",-12.8836269378662,-38.4146957397461,,"",0,
44782640,"Rua D 428 - Cajazeiras Salvador - BA 41330-030 Brasil","",-12.8856801986694,-38.4147872924805,,"",0,
45834597,"Rua D S/N - Cajazeiras Salvador - BA 41341-210 Brasil","",-12.887565612793,-38.4148979187012,,"",0,
48480946,"R. São Marcos 2203-2235 - São Marcos Salvador - BA 41253-190 Brasil","",-12.9286365509033,-38.4352264404297,,"",0,
46022221,"Rua São Marcos S/N - São Marcos Salvador - BA 41301-110 Brasil","",-12.930025100708,-38.4298248291016,,"",0,
44164929,"Av. São Rafael 1593-1595 - São Marcos Salvador - BA 41253-190 Brasil","",-12.9314079284668,-38.428035736084,,"",0,
45833475,"Avenida São Rafael 1197-1225 - São Marcos Salvador - BA 41253-100 Brasil","",-12.9351301193237,-38.4253883361816,,"",0,
44784316,"Avenida São Rafael 841-1041 - São Marcos Salvador - BA 41250-403 Brasil","",-12.9366369247437,-38.4229545593262,,"",0,
45834139,"Rua São Marcos S/N - São Marcos Salvador - BA 41253-020 Brasil","",-12.939380645752,-38.4214477539063,,"",0,
44783452,"Av. Centro Administrativo da Bahia 460 - Novo Horizonte Salvador - BA 41745-002 Brasil","",-12.9433488845825,-38.4227142333984,,"",0,
45833287_S,"Av. Centro Administrativo da Bahia 400 - Centro Administrativo da Bahia Salvador - BA Brasil","TS CAB...",-12.9433355331421,-38.4270477294922,,"",1,
45833287,"Av. Centro Administrativo da Bahia 400 - Centro Administrativo da Bahia Salvador - BA Brasil","TS CAB...",-12.9433355331421,-38.4270477294922,,"",0,45833287_S
45833288,"Rua 3ª Av. do CAB S/N - Centro Administrativo da Bahia Salvador - BA 41745-004 Brasil","",-12.9476795196533,-38.4340629577637,,"",0,
45833651,"Via 3ª Av. Centro Administrativo da Bahia S/N - Cabula VI Salvador - BA 41745-005 Brasil","",-12.9499988555908,-38.4347076416016,,"",0,
45833289,"Rua 3ª Av. do CAB S/N - Cabula VI Salvador - BA 41745-005 Brasil","",-12.9526128768921,-38.4326324462891,,"",0,
44783385,"Rua 3ª Av. do CAB S/N - Cabula VI Salvador - BA 41730-101 Brasil","",-12.9554128646851,-38.4312744140625,,"",0,
44782882,"Rua 3ª Av. do CAB S/N - Centro Administrativo da Bahia Salvador - BA 41730-101 Brasil","",-12.9540176391602,-38.4313430786133,,"",0,
44784478,"Rua 3ª Av. do CAB S/N - Centro Administrativo da Bahia Salvador - BA 41745-005 Brasil","",-12.9501037597656,-38.4341506958008,,"",0,
192365034,"Avenida Luiz Viana Salvador - Bahia 41181 Brasil","",-12.9599103927612,-38.4330215454102,,"",0,
44782582,"Avenida Edgard Santos 76 Salvador - Bahia 41181 Brasil","",-12.9618587493896,-38.4373893737793,,"",0,
44782584,"Av. Edgard Santos 37 - Saboeiro Salvador - BA Brasil","",-12.9594173431396,-38.4400978088379,,"",0,
44782581,"Avenida Edgard Santos 118b - Saboeiro Salvador - BA 41181-100 Brasil","",-12.9564037322998,-38.4413604736328,,"",0,
44739642_S,"Av. Edgard Santos 144-392 - Cabula VI Salvador - BA 41180-790 Brasil","",-12.9550876617432,-38.4434928894043,,"",1,
44739642,"Av. Edgard Santos 144-392 - Cabula VI Salvador - BA 41180-790 Brasil","",-12.9550876617432,-38.4434928894043,,"",0,44739642_S
44739394,"Travessa Águas Cristalinas Salvador - Bahia 41192 Brasil","",-12.9531545639038,-38.4480476379395,,"",0,
45833839,"Av. Edgard Santos 2226 - Cabula VI Salvador - BA 41180-790 Brasil","",-12.956244468689,-38.4495086669922,,"",0,
45833246,"Av. Edgard Santos 2620-2652 - Cabula VI Salvador - BA 41180-790 Brasil","",-12.9581899642944,-38.450325012207,,"",0,
45833284,"R. Silveira Martins 3303 - Cabula Salvador - BA Brasil","",-12.9588003158569,-38.4523773193359,,"",0,
45833247,"R. Silveira Martins 259 - Cabula Salvador - BA 41192-020 Brasil","",-12.9577140808105,-38.4539031982422,,"",0,
45833834,"R. Silveira Martins 2437 - Cabula Salvador - BA Brasil","",-12.9554691314697,-38.4552726745605,,"",0,
47568278,"R. Silveira Martins 2185 - Cabula Salvador - BA Brasil","",-12.9539003372192,-38.4578323364258,,"",0,
46021628,"UNEB - Campus XI Departamento de Educação Campus I – Salvador UNEB - Universidade do Estado da Bahia - Rua Silveira Martins 248 - Cabula Salvador - BA Brasil","",-12.9528226852417,-38.4600715637207,,"",0,
44782476,"Estrada das Barreiras 190-242 - São Goncalo Salvador - BA 41185-500 Brasil","",-12.9505252838135,-38.4608383178711,,"",0,
44783141,"Estrada das Barreiras 545 - Barreiras Salvador - BA Brasil","",-12.9470348358154,-38.4608535766602,,"",0,
44783140,"Estrada das Barreiras 675 - Engomadeira Salvador - BA Brasil","",-12.9451904296875,-38.4604110717773,,"",0,
45833220,"Estrada das Barreiras 1129-1133 - Tancredo Neves Salvador - BA Brasil","",-12.9434690475464,-38.4567337036133,,"",0,
45833225,"Estr. das Barreiras 1356 - Tancredo Neves Salvador - BA 41205-005 Brasil","",-12.9422092437744,-38.4549865722656,,"",0,
47566095,"Avenida Cardeal Avelar Brandão Villela 1608-1610 - Tancredo Neves Salvador - BA 41205-006 República Federativa do Brasil","",-12.9386911392212,-38.4533386230469,,"",0,
44782659,"Av. Cardeal Avelar Brandão Villela 1622-1624 - Tancredo Neves Salvador - BA 41205-006 Brasil","",-12.9365701675415,-38.4551963806152,,"",0,
44782658,"R. Carlos Brandão da Silva 1e - Mata Escura Salvador - BA 41219-480 Brasil","",-12.9345397949219,-38.4568176269531,,"",0,
46906977,"Av. Cardeal Avelar Brandão Villela 1638-1640 - Tancredo Neves Salvador - BA 41205-006 Brasil","",-12.9327907562256,-38.4571952819824,,"",0,
45833214,"Av. Centro Administrativo da Bahia 460 - Novo Horizonte Salvador - BA 41745-002 Brasil","CAB Paralela",-12.9447412490845,-38.4215965270996,,"",0,
45833208,"Avenida Luiz Viana Salvador - Bahia 41745 Brasil","",-12.9476194381714,-38.4236259460449,,"",0,
44784469,"Avenida Luiz Viana Salvador - Bahia 41745 Brasil","",-12.9530925750732,-38.4276123046875,,"",0,
46022172,"Avenida Cardeal Avelar Brandão Villela 1616-1620 - Tancredo Neves Salvador - BA 41205-006 Brasil","",-12.9379940032959,-38.4538307189941,,"",0,
45833306_S,"Rua Santa Maria 1-67 - Pau da Lima Salvador - BA 41235-840 República Federativa do Brasil","TP PAU DA LIMA",-12.9244165420532,-38.4450988769531,,"",1,
45833306,"Rua Santa Maria 1-67 - Pau da Lima Salvador - BA 41235-840 República Federativa do Brasil","TP PAU DA LIMA",-12.9244165420532,-38.4450988769531,,"",0,45833306_S
45833307,"Rua Doutor Arthur Gonzales 189-209 - Pau da Lima Salvador - BA 41235-005 República Federativa do Brasil","",-12.9222164154053,-38.4451179504395,,"",0,
45833308,"Rua Dr. Arthur Gonzales 120-126 - Pau da Lima Salvador - BA 41235-005 Brasil","",-12.9207439422607,-38.4430503845215,,"",0,
45834651,"Avenida Luiz Viana Salvador - Bahia 41745 Brasil","",-12.9487571716309,-38.4232330322266,,"",0,
47565871,"Avenida Luiz Viana Salvador - Bahia 41741 Brasil","",-12.9441432952881,-38.4196662902832,,"",0,
45833309,"Av. Prof. Pinto de Aguiar  S/N - Pituaçu Salvador - BA Brasil","",-12.9436349868774,-38.4174194335938,,"",0,
45833640,"Av. Prof. Pinto de Aguiar 7 - Patamares Salvador - BA 42740-090 Brasil","",-12.9453964233398,-38.4152336120605,,"",0,
45833636,"Av. Prof. Pinto de Aguiar 2255-2359 - Pituaçu Salvador - BA Brasil","",-12.9472732543945,-38.4128303527832,,"",0,
44165070,"Av. Prof. Pinto de Aguiar 1849-1963 - Pituaçu Salvador - BA Brasil","",-12.9496879577637,-38.4105415344238,,"",0,
46021703,"Av. Prof. Pinto de Aguiar 3 - Pituaçu Salvador - BA 41740-090 Brasil","",-12.952467918396,-38.4081344604492,,"",0,
49419949,"Av. Prof. Pinto de Aguiar 1091 - Pituaçu Salvador - BA Brasil","",-12.9572219848633,-38.4080543518066,,"",0,
45834027,"R. Jardim Paraíso 275-311 - Pituaçu Salvador - BA Brasil","",-12.9601240158081,-38.4073143005371,,"",0,
45833313,"Av. Prof. Pinto de Aguiar 291 - Pituaçu Salvador - BA 41740-090 Brasil","",-12.9624185562134,-38.4041938781738,,"",0,
45833055,"Rua Carimbamba 5459 - Pituaçu Salvador - BA Brasil","",-12.9667510986328,-38.4063339233398,,"",0,
45833056,"Avenida Otavio Mangabeira 8085 Salvador - Bahia 41740 Brasil","",-12.9691848754883,-38.4099349975586,,"",0,
45833057,"Avenida Otavio Mangabeira 7613 Salvador - Bahia 41740 Brasil","",-12.9720401763916,-38.4145011901855,,"",0,
45833058,"Avenida Otavio Mangabeira 8040 Salvador - Bahia 41740 Brasil","",-12.9741945266724,-38.4177055358887,,"",0,
45833059,"Avenida Otavio Mangabeira 136 Salvador - Bahia 41706 Brasil","",-12.9759721755981,-38.4216117858887,,"",0,
45833061,"Av. Otávio Mangabeira S/N Bahia Brasil","",-12.9786958694458,-38.4257583618164,,"",0,
45833716,"Avenida Octávio Mangabeira 5533-5601 - Bôca do Rio Salvador - BA Brasil","",-12.9808731079102,-38.4312477111816,,"",0,
45833717,"Avenida Octávio Mangabeira 5251-5447 - Bôca do Rio Salvador - BA Brasil","",-12.9826593399048,-38.4332313537598,,"",0,
45833797,"Avenida Otavio Mangabeira 4435 Salvador - Bahia 41750 Brasil","",-12.987865447998,-38.4354515075684,,"",0,
45833798,"Av. Otávio Mangabeira S/N Bahia Brasil","",-12.9926652908325,-38.4396514892578,,"",0,
49051823,"Avenida Octávio Mangabeira 3551 - Armacao Salvador - BA 41750-240 Brasil","",-12.9950866699219,-38.4416427612305,,"",0,
49324172,"Avenida Octávio Mangabeira 3279 - Armacao Salvador - BA 41750-240 Brasil","",-12.9967851638794,-38.443229675293,,"",0,
44165411,"Rua Arthur de Azevêdo Machado 200-300 - Stiep Salvador - BA 41770-790 Brasil","",-12.9972429275513,-38.4461441040039,,"",0,
49053699,"Rua Doutor José Peroba 400 - Stiep Salvador - BA 41770-790 Brasil","",-12.9963331222534,-38.4473762512207,,"",0,
44165412,"R. Artur de Azevedo Machado S/N - Costa Azul Salvador - BA Brasil","STIEP",-12.9927740097046,-38.4478721618652,,"",0,
45834208,"R. Artur de Azevedo Machado S/N - Costa Azul Salvador - BA Brasil","",-12.9893217086792,-38.4478416442871,,"",0,
44782781,"R. Artur de Azevedo Machado S/N - Costa Azul Salvador - BA Brasil","",-12.9872770309448,-38.4482002258301,,"",0,
44782777,"R. Edílson Pondé S/N - Costa Azul Salvador - BA Brasil","",-12.9854497909546,-38.4487533569336,,"",0,
45833317,"R. José Peroba S/N - Costa Azul Salvador - BA Brasil","",-12.9864597320557,-38.4488372802734,,"",0,
45833318,"Rua Artur de Azevedo Machado 1485 - Costa Azul Salvador - BA Brasil","",-12.9900331497192,-38.447998046875,,"",0,
45833319,"Rua Doutor José Peroba 901-951 - Costa Azul Salvador - BA Brasil","",-12.9923210144043,-38.4482345581055,,"",0,
45834395,"Rua Adelaide Fernandes da Costa 436 - Costa Azul Salvador - BA Brasil","",-12.9957866668701,-38.4499549865723,,"",0,
45833320,"R. Adelaide Fernandes Costa S/N - Costa Azul Salvador - BA Brasil","",-12.9975261688232,-38.4471817016602,,"",0,
45834881,"R. Fernando Menezes de Góes 51 - Pituba Salvador - BA 41810-700 Brasil","",-12.9992370605469,-38.449535369873,,"",0,
44784220,"Av. Otávio Mangabeira S/N Bahia Brasil","",-13.000825881958,-38.4495391845703,,"",0,
44782786,"Av. Otávio Mangabeira S/N Bahia Brasil","",-12.9976634979248,-38.4437103271484,,"",0,
44782783,"Av. Otávio Mangabeira S/N Bahia Brasil","",-12.9943075180054,-38.4406776428223,,"",0,
47568295,"Avenida Otavio Mangabeira 4329 Salvador - Bahia 41750 Brasil","",-12.991904258728,-38.4386367797852,,"",0,
45833693,"Avenida Otavio Mangabeira 4435 Salvador - Bahia 41750 Brasil","",-12.9885025024414,-38.4356994628906,,"",0,
45833694,"Avenida Octávio Mangabeira 5382 - Bôca do Rio Salvador - BA Brasil","",-12.9829158782959,-38.4331512451172,,"",0,
45833695,"Avenida Otávio Mangabeira 5662 - Bôca do Rio Salvador - BA Brasil","",-12.9810419082642,-38.4310874938965,,"",0,
45833825,"R. Boca do Rio_Av. Otávio Mangabeira S/N Bahia Brasil","",-12.9788408279419,-38.4252777099609,,"",0,
46021907,"Avenida Otavio Mangabeira 136 Salvador - Bahia 41706 Brasil","",-12.9761381149292,-38.4211883544922,,"",0,
45833698,"Av. Otávio Mangabeira S/N Bahia Brasil","",-12.970440864563,-38.4100303649902,,"",0,
45833699,"Av. Otávio Mangabeira S/N Bahia Brasil","",-12.967661857605,-38.4059181213379,,"",0,
45834032,"Avenida Professor Pinto de Aguiar 797 - Pituaçu Salvador - BA Brasil","",-12.9624328613281,-38.4036254882813,,"",0,
49337800,"001878 - Professor Pinto de Aguiar 792 - Patamares Salvador - BA Brasil","",-12.95885181427,-38.407772064209,,"",0,
49337801,"Av. Prof. Pinto de Aguiar 974-1186 - Pituaçu Salvador - BA Brasil","",-12.957067489624,-38.4077415466309,,"",0,
45834033,"Av. Prof. Pinto de Aguiar 12 - Pituaçu Salvador - BA Brasil","",-12.9526100158691,-38.4075622558594,,"",0,
44782463,"Av. Prof. Pinto de Aguiar 1962-2234 - Pituaçu Salvador - BA Brasil","",-12.9491128921509,-38.4106979370117,,"",0,
44782473,"Av. Prof. Pinto de Aguiar 2600-2674 - Pituaçu Salvador - BA Brasil","",-12.9452304840088,-38.4148178100586,,"",0,
45833816,"Av. Prof. Pinto de Aguiar  S/N - Pituaçu Salvador - BA Brasil","",-12.9439086914063,-38.4167900085449,,"",0,
44784226,"Avenida São Rafael 468-530 - São Marcos Salvador - BA 41253-020 Brasil","",-12.9392137527466,-38.4213562011719,,"",0,
45833472,"Av. São Rafael 784-840 - São Marcos Salvador - BA 41253-190 Brasil","",-12.9368581771851,-38.4224014282227,,"",0,
45833801,"Rua São Marcos S/N - São Marcos Salvador - BA 41250-420 Brasil","",-12.9345855712891,-38.4251518249512,,"",0,
44784088,"Av. São Rafael 1228-1386 - São Marcos Salvador - BA 41253-190 Brasil","",-12.9332065582275,-38.4261932373047,,"",0,
44784097,"Av. São Rafael 1522-1592 - São Marcos Salvador - BA 41253-190 Brasil","",-12.9319629669189,-38.4271621704102,,"",0,
45833802,"Av. São Rafael 1598-1600 - São Marcos Salvador - BA 41253-190 Brasil","",-12.9297256469727,-38.4297409057617,,"",0,
48480947,"R. São Marcos 2204-2236 - São Marcos Salvador - BA 41253-190 Brasil","",-12.9284744262695,-38.4353370666504,,"",0,
45833327,"Rua Professora Rulneide Argôlo 2-78 - Pau da Lima Salvador - BA 41245-005 República Federativa do Brasil","",-12.9218330383301,-38.4446983337402,,"",0,
45833328,"Rua Doutor Arthur Gonzales 213-219 - Pau da Lima Salvador - BA 41235-005 República Federativa do Brasil","",-12.9228668212891,-38.4458847045898,,"",0,
44733698,"Av. José Joaquim Seabra 322 - Saúde Salvador - BA 40040-700 Brasil","",-12.9694337844849,-38.5065879821777,,"",0,
45833325,"Av. José Joaquim Seabra 256 - Pelourinho Salvador - BA 40026-350 Brazil","",-12.9714059829712,-38.5075759887695,,"",0,
84185949,"Rua Dr. Arthur Gonzales 99-117 - São Marcos Salvador - BA 41245-800 Brasil","",-12.9205322265625,-38.4429969787598,,"",0,
45833923,"000569 - Ulysses Guimarães 4072-4074 - Sussuarana Salvador - BA 41214-145 Brasil","",-12.9331035614014,-38.445240020752,,"",0,
43768294,"Av. Mario Leal Ferreira 2257-2263 - Cosme de Farias Salvador - BA 40252-390 Brasil","",-12.9810914993286,-38.4822235107422,,"",0,
45833763,"R. Baianinha 88-164 - Daniel Lisboa Salvador - BA 40253-420 Brasil","",-12.9841651916504,-38.484935760498,,"",0,
43768316,"R. Lima Teixeira 95-99 - Daniel Lisboa Salvador - BA Brasil","",-12.9838590621948,-38.4881629943848,,"",0,
44783008,"Av. Mario Leal Ferreira 1029-1165 - Cosme de Farias Salvador - BA 40252-390 Brasil","",-12.9832439422607,-38.4915046691895,,"",0,
45833613,"Avenida General Graça Lessa Salvador - Bahia 40240 Brasil","",-12.9863471984863,-38.497127532959,,"",0,
45834529,"Avenida General Graça Lessa 304 Salvador - Bahia 40240 Brasil","",-12.9920616149902,-38.496208190918,,"",0,
44784442,"Avenida General Graça Lessa 326 Salvador - Bahia 40290 Brasil","",-12.9945497512817,-38.4961814880371,,"",0,
44784437,"Av. Vasco da Gama S/N - Brotas Salvador - BA Brasil","",-12.993088722229,-38.4987030029297,,"",0,
44784421,"Av. Vasco da Gama S/N - Engenho Velho de Brotas Salvador - BA Brasil","",-12.9910755157471,-38.5019416809082,,"",0,
50065504,"Avenida Vasco da Gama 432 - Federação Salvador - BA Brasil","",-12.9900741577148,-38.5041732788086,,"",0,
44782324,"Av. Presidente Costa e Silva S/N - Nazaré Salvador - BA Brasil","",-12.9886779785156,-38.5104293823242,,"",0,
44782752,"Avenida Vale do Tororó 180 - Nazaré Salvador - BA Brasil","",-12.9861917495728,-38.5107383728027,,"",0,
43768720_S,"Avenida Vale Do Tororo 327 Salvador - Bahia 40050 Brasil","TS LAPA....",-12.9833889007568,-38.51123046875,,"",1,
43768720,"Avenida Vale Do Tororo 327 Salvador - Bahia 40050 Brasil","TS LAPA....",-12.9833889007568,-38.51123046875,,"",0,43768720_S
45832898,"Avenida Vale do Tororó 291 - Nazaré Salvador - BA Brasil","",-12.9864282608032,-38.5110969543457,,"",0,
44782328,"Praça Dr. João Mangabeira 627-679 - Garcia Salvador - BA Brasil","",-12.9900913238525,-38.5114479064941,,"",0,
44784448,"Av. Vaco da Gama S/N - Federação Salvador - BA Brasil","",-12.990532875061,-38.5043869018555,,"",0,
44784449,"Av. Vasco da Gama 271 - Federação Salvador - BA 40230-731 Brazil","",-12.9920053482056,-38.5019721984863,,"",0,
45833116,"Av. Vasco da Gama S/N - Federação Salvador - BA Brasil","",-12.9933242797852,-38.4990043640137,,"",0,
45833117,"Avenida Vasco Da Gama 405 Salvador - Bahia 40240 Brasil","",-12.9951114654541,-38.4970016479492,,"",0,
45833118,"Avenida Vasco Da Gama 435 Salvador - Bahia 40221 Brasil","",-12.9962129592896,-38.4955520629883,,"",0,
44782421,"Av. Vasco da Gama S/N - Engenho Velho da Federacao Salvador - BA Brasil","",-12.9972343444824,-38.4933624267578,,"",0,
44165348,"Avenida Vasco da Gama 1170 - Engenho Velho da Federacao Salvador - BA Brasil","",-12.9971981048584,-38.4926071166992,,"",0,
44782422,"Av. Vasco da Gama 207 - Acupe de Brotas Salvador - BA Brazil","",-12.9962730407715,-38.4943962097168,,"",0,
45833095,"Avenida General Graça Lessa 124 - Acupe de Brotas Salvador - BA Brazil","",-12.9939317703247,-38.4956970214844,,"",0,
292785688,"Avenida General Graça Lessa 324 Salvador - Bahia 40290 Brasil","",-12.9910593032837,-38.4962577819824,,"",0,
44782927,"Avenida General Graça Lessa Salvador - Bahia 40290 Brasil","",-12.9871482849121,-38.496711730957,,"",0,
45834348,"Avenida Mario Leal Ferreira Salvador - Bahia 40284 Brasil","",-12.9834985733032,-38.4938583374023,,"",0,
43768271,"R. Machado de Assis - Daniel Lisboa Salvador - BA 40283-280 Brasil","",-12.9840478897095,-38.4909286499023,,"",0,
43768272,"Av. Mario Leal Ferreira 1446-1574 - Daniel Lisboa Salvador - BA 40284-320 Brasil","",-12.9844255447388,-38.4881019592285,,"",0,
44783328,"Rua Odilon Doria 119 Salvador - Bahia 40285 Brasil","",-12.9847726821899,-38.484676361084,,"",0,
43768274,"Av. Mario Leal Ferreira 2112 - Campinas de Brotas Salvador - BA Brasil","",-12.9828968048096,-38.482234954834,,"",0,
45833179,"Av. ACM S/N - Campinas de Brotas Salvador - BA Brasil","",-12.9783639907837,-38.472354888916,,"",0,
210060582,"Avenida Antônio Carlos Magalhães 4149-4233 - Parque Bela Vista Salvador - BA Brasil","",-12.9798030853271,-38.4682846069336,,"",0,
236150642,"Avenida Antonio Carlos Magalhaes 3410 Salvador - Bahia 41800 Brasil","",-12.9843168258667,-38.4668388366699,,"",0,
99376726,"Avenida Luiz Viana Salvador - Bahia 41820 Brasil","",-12.9760618209839,-38.4576072692871,,"",0,
44783757,"Alameda Salvador Salvador - Bahia 41820 Brasil","",-12.9794387817383,-38.4549674987793,,"",0,
44782370,"Alameda Salvador 800-1036 - Caminho das Árvores Salvador - BA Brasil","",-12.9811773300171,-38.4505615234375,,"",0,
46022024,"Avenida Tancredo Neves 2421 - Caminho das Árvores Salvador - BA Brasil","",-12.9792652130127,-38.4514083862305,,"",0,
44784085,"Rua Via Regional S/N - São Marcos Salvador - BA 41250-257 Brasil","",-12.9253244400024,-38.4337425231934,,"",0,
44782804,"Rua Via Regional S/N - São Marcos Salvador - BA 41385-005 Brasil","",-12.9224891662598,-38.432731628418,,"",0,
45834643,"Rua Via Regional S/N - São Marcos Salvador - BA 41385-005 Brasil","",-12.9203996658325,-38.4316596984863,,"",0,
125960550,"R. Artêmio Castro Valente 11 - Canabrava Salvador - BA 41260-300 Brasil","",-12.9211845397949,-38.428295135498,,"",0,
45833292,"R. Artêmio Castro Valente S/N - Canabrava Salvador - BA Brasil","",-12.9228668212891,-38.4277992248535,,"",0,
45833337,"R. Artêmio Castro Valente 346-438 - Canabrava Salvador - BA Brasil","",-12.923189163208,-38.4248466491699,,"",0,
45834414,"Rua Artêmio Castro Valente 501-509 - Canabrava Salvador - BA 41260-300 República Federativa do Brasil","",-12.9233169555664,-38.4221496582031,,"",0,
45833298,"Rua Bem-Te-VI 2-10 - Canabrava Salvador - BA 41260-340 República Federativa do Brasil","",-12.9253835678101,-38.4198684692383,,"",0,
45833294,"Rua Bem-Te-VI 11-45 - Canabrava Salvador - BA República Federativa do Brasil","",-12.9250335693359,-38.4195518493652,,"",0,
45833295,"Rua Bem-Te-VI 11-45 - Canabrava Salvador - BA República Federativa do Brasil","",-12.9242000579834,-38.4193000793457,,"",0,
44782350_S,"R. Bem-Te-VI 117-119 - Canabrava Salvador - BA 41260-340 Brasil","TP CANABRAVA",-12.9218692779541,-38.4191246032715,,"",1,
44782350,"R. Bem-Te-VI 117-119 - Canabrava Salvador - BA 41260-340 Brasil","TP CANABRAVA",-12.9218692779541,-38.4191246032715,,"",0,44782350_S
44784361,"Rua Bem-Te-VI 2-10 - Canabrava Salvador - BA 41260-340 Brasil","",-12.9253358840942,-38.4199371337891,,"",0,
45833293,"Rua Nova Cidade I 323-399 - Canabrava Salvador - BA República Federativa do Brasil","",-12.9266004562378,-38.4204177856445,,"",0,
44784599,"R. Artêmio Castro Valente S/N - Canabrava Salvador - BA Brasil","",-12.9266157150269,-38.415943145752,,"",0,
44784051,"R. Artêmio Castro Valente S/N - Canabrava Salvador - BA Brasil","",-12.9285821914673,-38.4149360656738,,"",0,
45833254,"R. Artêmio Castro Valente S/N - São Marcos Salvador - BA Brasil","",-12.9306135177612,-38.4142265319824,,"",0,
45833255,"R. Proc. Nelson Castro S/N - São Marcos Salvador - BA República Federativa do Brasil","",-12.9322500228882,-38.4126167297363,,"",0,
44783825,"R. Proc. Nelson Castro S/N - São Marcos Salvador - BA Brasil","",-12.9331951141357,-38.4122772216797,,"",0,
45833256,"R. Procurador Nelsom Castro 92-644 - Trobogy Salvador - BA 41745-027 Brasil","",-12.9345703125,-38.4109916687012,,"",0,
48467695,"Rua Procurador Nelsom Castro 22-50 - Trobogy Salvador - BA 41745-027 Brasil","",-12.9375200271606,-38.4090766906738,,"",0,
45834145,"UNIJORGE","",-12.9382467269897,-38.4110717773438,,"",0,
45834142,"Avenida Luiz Viana Salvador - Bahia 41250 Brasil","",-12.9388399124146,-38.4140815734863,,"",0,
47565733,"Av. São Rafael 1198-1226 - São Marcos Salvador - BA 41253-190 Brasil","",-12.9343900680542,-38.4253044128418,,"",0,
45833450,"Avenida Cardeal Avelar Brandão Vilela S/N - Mata Escura Salvador - BA 41219-480 Brasil","",-12.9346647262573,-38.4569320678711,,"",0,
44782998,"Av. Cardeal Avelar Brandão Villela 1621-1623 - Tancredo Neves Salvador - BA 41205-006 Brasil","",-12.9364862442017,-38.4554634094238,,"",0,
45833230,"000245 - Cardeal Avelar Brandão Villela 1615-1619 - Barreiras Salvador - BA 40301-110 Brasil","",-12.9378623962402,-38.4540100097656,,"",0,
46022152,"Avenida Ulysses Guimarães S/N - Sussuarana Salvador - BA 41210-705 Brasil","",-12.9382190704346,-38.4532508850098,,"",0,
47566107,"Estrada Sussuarana 687 - Sussuarana Salvador - BA 41213-108 Brasil","",-12.9362277984619,-38.4525566101074,,"",0,
45833942,"Avenida Ulysses Guimarães S/N - Sussuarana Salvador - BA 41213-012 Brasil","",-12.9354591369629,-38.449836730957,,"",0,
45833647,"Av. Ulysses Guimarães 3562-3624 - Novo Horizonte Salvador - BA 41218-700 Brasil","",-12.9347505569458,-38.4475173950195,,"",0,
200498925,"Avenida Ulisses Guimaraes 4466 Salvador - Bahia 41215 Brasil","",-12.9376392364502,-38.4369812011719,,"",0,
45833658,"1ª Avenida Centro Administrativo da Bahia 144-230 - Centro Administrativo da Bahia Salvador - BA 41745-001 Brasil","",-12.9485549926758,-38.4287796020508,,"",0,
48937185,"Avenida Octávio Mangabeira 9311 - Calcada BA Brasil","",-12.9643497467041,-38.4019393920898,,"",0,
44165074,"Av. Otávio Mangabeira S/N Bahia Brasil","",-12.9627847671509,-38.4004287719727,,"",0,
47568297,"Avenida Otavio Mangabeira 10265 Salvador - Bahia 41613 Brasil","",-12.9606790542603,-38.3959465026855,,"",0,
44783345,"Avenida Otavio Mangabeira 10601 Salvador - Bahia 41613 Brasil","",-12.9591407775879,-38.3930587768555,,"",0,
44783341,"Av. Otávio Mangabeira S/N Bahia Brasil","",-12.9558877944946,-38.3868827819824,,"",0,
45833704,"Av. Otávio Mangabeira S/N Bahia Brasil","",-12.9544677734375,-38.3831176757813,,"",0,
45832857,"Av. Octávio Mangabeira 11881 - Piatã Salvador - BA Brasil","",-12.9538612365723,-38.3808135986328,,"",0,
47567953,"Av. Otávio Mangabeira S/N Bahia Brasil","",-12.9533767700195,-38.3791999816895,,"",0,
47568298,"Avenida Otavio Mangabeira 3 Salvador - Bahia 41612 Brasil","",-12.9517107009888,-38.3735008239746,,"",0,
44783678,"Av. Octávio Mangabeira 12886-13500 - Jardim Placaford Salvador - BA Brasil","PP194-2",-12.9505634307861,-38.3686714172363,,"",0,
46021751,"Av. Octávio Mangabeira 13375 - Jardim Placaford Salvador - BA Brasil","PN46021751",-12.9503746032715,-38.3682556152344,,"",0,
44784150,"Av. Otávio Mangabeira S/N Bahia Brasil","",-12.9510402679443,-38.3717575073242,,"",0,
44784142,"Avenida Otavio Mangabeira 6343 Salvador - Bahia 41612 Brasil","",-12.9517297744751,-38.3743896484375,,"",0,
45833049,"Avenida Octávio Mangabeira 11905-11949 - Piatã Salvador - BA Brasil","",-12.9531469345093,-38.3792915344238,,"",0,
45833050,"Av. Octávio Mangabeira 11245-11377 - Piatã Salvador - BA Brasil","",-12.954065322876,-38.382869720459,,"",0,
45833051,"Avenida Otavio Mangabeira Salvador - Bahia 41613 Brasil","",-12.9561519622803,-38.3880958557129,,"",0,
45833052,"Av. Octávio Mangabeira 10599-10755 - Jaguaribe Salvador - BA 41613-034 Brasil","",-12.9582252502441,-38.3931503295898,,"",0,
45833053,"Avenida Otavio Mangabeira 10265 Salvador - Bahia 41613 Brasil","",-12.960018157959,-38.3964881896973,,"",0,
200498924,"Avenida Ulisses Guimaraes 4466 Salvador - Bahia 41215 Brasil","",-12.9372682571411,-38.4371452331543,,"",0,
200498926,"Avenida Ulisses Guimaraes 4466 Salvador - Bahia 41215 Brasil","",-12.9369192123413,-38.4374923706055,,"",0,
45833925,"002642 - Ulysses Guimarães 3625 - Sussuarana Salvador - BA 41290-550 Brasil","",-12.9343137741089,-38.4474411010742,,"",0,
44783287,"Travessa José Emílio 2-82 - Mata Escura Salvador - BA Brasil","",-12.9355611801147,-38.4483985900879,,"",0,
45833927,"Av. Ulysses Guimarães 102 - Sussuarana Salvador - BA 41213-000 Brasil","",-12.9349670410156,-38.4505500793457,,"",0,
45833928,"Av. Ulysses Guimarães 495 - Sussuarana Salvador - BA 41213-000 Brasil","",-12.9353933334351,-38.4522361755371,,"",0,
45833929,"Av. Ulysses Guimarães 690 - Novo Horizonte Salvador - BA 40301-110 Brasil","",-12.9365701675415,-38.4528160095215,,"",0,
44783685,"Rua Engenheiro Aristídes M da Silveira 25 Bahia Brasil","",-12.9501523971558,-38.3656539916992,,"",0,
45832936,"Rua Professor Souza Brito 11 - Itapuã Salvador - BA 41640-380 Brasil","",-12.9504175186157,-38.3625946044922,,"",0,
46021748,"Ladeira do Abaeté 39 - Nova Brasília de Itapuã Salvador - BA 41610-730 Brasil","",-12.947283744812,-38.3615493774414,,"",0,
45833811,"Ladeira do Abaeté 55 - Nova Brasília de Itapuã Salvador - BA 41610-730 Brasil","",-12.9462804794312,-38.3612670898438,,"",0,
45832937,"Ladeira do Mirante 791 - Itapuã Salvador - BA Brasil","",-12.9451360702515,-38.3607330322266,,"",0,
45832938,"Ladeira do Mirante 727 - Itapuã Salvador - BA Brasil","",-12.9442176818848,-38.3608322143555,,"",0,
45832939,"Rua Paulo Souto 54-140 - Nova Brasília de Itapuã Salvador - BA 41611-680 Brasil","TS ABAETÉ",-12.9413347244263,-38.3585472106934,,"",0,
45833810,"Ladeira do Mirante 730 - Itapuã Salvador - BA Brasil","",-12.9447908401489,-38.3608322143555,,"",0,
46021749,"Ladeira do Abaeté 48 - Nova Brasília de Itapuã Salvador - BA 41610-730 Brasil","",-12.9465017318726,-38.3615951538086,,"",0,
45833812,"Ladeira do Abaeté 6-8 - Nova Brasília de Itapuã Salvador - BA Brasil","",-12.9497394561768,-38.3627128601074,,"",0,
45833813,"R. Aristides Milton S/N Bahia Brasil","",-12.9499216079712,-38.3650321960449,,"",0,
44028970_S,"TERMINAL DE CABULA VI","TP CABULA VI",-12.9568862915039,-38.4374465942383,,"",1,
44028970,"TERMINAL DE CABULA VI","TP CABULA VI",-12.9568862915039,-38.4374465942383,,"",0,44028970_S
44783401,"R. Teódulo de Albuquerque 182-288 - Cabula VI Salvador - BA 41181-010 Brasil","",-12.9551773071289,-38.4372978210449,,"",0,
44783402,"Av. Teódulo Albuquerque S/N - Cabula VI Salvador - BA Brasil","",-12.9542779922485,-38.4381561279297,,"",0,
45833865,"R. Anísio Melhor 2-24 - Doron Salvador - BA Brasil","",-12.955060005188,-38.4409675598145,,"",0,
288021177,"Avenida Edgard Santos Salvador - Bahia 41192 Brasil","",-12.953556060791,-38.4478416442871,,"",0,
44782588,"Avenida Edgard Santos 1631-1679 - Saboeiro Salvador - BA 41194-155 Brasil","",-12.9542140960693,-38.4459419250488,,"",0,
44782578_S,"Av. Edgard Santos 121-131 - Saboeiro Salvador - BA Brasil","",-12.9561634063721,-38.4432983398438,,"",1,
44782578,"Av. Edgard Santos 121-131 - Saboeiro Salvador - BA Brasil","",-12.9561634063721,-38.4432983398438,,"",0,44782578_S
45833241,"Av. Edgard Santos 89 - Narandiba Salvador - BA 41192-005 Brasil","",-12.9585361480713,-38.4414939880371,,"",0,
44782590,"Av. Edgard Santos 51-59 - Saboeiro Salvador - BA Brasil","",-12.9605007171631,-38.4398307800293,,"",0,
47568496,"Avenida Edgard Santos 501 Salvador - Bahia 41194 Brasil","",-12.9620332717896,-38.4379959106445,,"",0,
111373595,"Avenida Edgar Santos 2006 Salvador - Bahia 41181 Brasil","",-12.9632129669189,-38.4364814758301,,"",0,
43768558,"Av. Mario Leal Ferreira 443-553 - Cosme de Farias Salvador - BA Brasil","",-12.9809284210205,-38.4957466125488,,"",0,
43768268,"Codnominio Edifício Flor de Jasmim - Av. Mario Leal Ferreira 387 - Bonoco Salvador - BA 40275-240 Brasil","",-12.9793653488159,-38.4993019104004,,"",0,
43768293,"Av. Pres. Costa e Silva - Garcia Salvador - BA Brazil","",-12.9811840057373,-38.5048370361328,,"",0,
44782751,"Av. Pres. Costa e Silva - Garcia Salvador - BA 40050-360 Brazil","",-12.9843635559082,-38.5077819824219,,"",0,
45833164,"Avenida Valê do Tororó 914-1028 - Garcia Salvador - BA Brasil","",-12.9863119125366,-38.5089111328125,,"",0,
44782853,"R. Brandão 234 - Engenho Velho de Brotas Salvador - BA 40240-200 Brazil","",-12.9863109588623,-38.5071601867676,,"",0,
43768637,"Av. Vasco da Gama S/N - Engenho Velho de Brotas Salvador - BA Brasil","",-12.9854612350464,-38.5048408508301,,"",0,
44784424,"Av. Durão 208 - Engenho Velho de Brotas Salvador - BA 40240-410 Brazil","",-12.9842128753662,-38.5037689208984,,"",0,
44784438,"Avenida Vasco da Gama 4274 - Brotas Salvador - BA Brasil","",-12.9824495315552,-38.5036926269531,,"",0,
43768270,"Av. Mario Leal Ferreira 84-186 - Engenho Velho de Brotas Salvador - BA Brasil","",-12.9799280166626,-38.4988594055176,,"",0,
44783404,"R. Teódulo de Albuquerque 127-131 - Cabula VI Salvador - BA Brasil","",-12.9543228149414,-38.4386978149414,,"",0,
44783119,"Avenida Teódulo Albuquerque S/N - Cabula VI Salvador - BA 41181-380 Brasil","",-12.9541244506836,-38.4404907226563,,"",0,
47565790,"Rua Silveira Martins 2160 - Cabula Salvador - BA 41185-010 Brasil","",-12.9535493850708,-38.4615440368652,,"",0,
47565760,"R. Silveira Martins 1801-1823 - Cabula Salvador - BA Brasil","",-12.9543008804321,-38.4633750915527,,"",0,
45833189,"R. Silveira Martins S/N - Cabula Salvador - BA Brasil","",-12.957085609436,-38.4647903442383,,"",0,
45833186,"R. Silveira Martins S/N - Cabula Salvador - BA Brasil","",-12.9591159820557,-38.4675483703613,,"",0,
45832871,"Rua Silveira Martins 3866 - Cabula Salvador - BA Brasil","",-12.9616765975952,-38.4711761474609,,"",0,
45833181,"Rua Silveira Martins 4162 - Cabula Salvador - BA Brasil","",-12.9635791778564,-38.4721260070801,,"",0,
44782390,"Av. José Joaquim Seabra 484 - Nazaré Salvador - BA Brasil","",-12.9693260192871,-38.5005416870117,,"",0,
44783655,"Avenida Adhemar de Barros 58 - Ondina Salvador - BA Brasil","",-13.0098743438721,-38.509033203125,,"",0,
316762175,"Avenida Milton Santos Salvador - Bahia 40170 Brasil","",-13.0069828033447,-38.5091094970703,,"",0,
44782345,"Avenida Adhemar de Barros 454 - Ondina Salvador - BA Brasil","",-13.0062637329102,-38.509033203125,,"",0,
44783657,"Avenida Adhemar de Barros 500 - Ondina Salvador - BA Brazil","",-13.003116607666,-38.507152557373,,"",0,
44165341,"Av. Garibaldi S/N - Ondina Salvador - BA Brazil","",-13.0026073455811,-38.5035934448242,,"",0,
44783651,"Av. Garibaldi S/N - Ondina Salvador - BA Brasil","",-13.0051708221436,-38.5028114318848,,"",0,
44782935,"Av. Anita Garibaldi 2039-2073 - Ondina Salvador - BA Brasil","",-13.0062685012817,-38.5009002685547,,"",0,
44782937,"R. Eduardo José dos Santos - Engenho Velho da Federacao Salvador - BA Brazil","",-13.0032358169556,-38.5027198791504,,"",0,
44782938,"Avenida Anita Garibaldi 1565 - Engenho Velho da Federacao Salvador - BA Brasil","",-13.0013341903687,-38.504508972168,,"",0,
44782939,"Av. Anita Garibaldi 1051 - Ondina Salvador - BA Brasil","",-12.9992265701294,-38.505916595459,,"",0,
47567711,"Avenida Anita Garibaldi 149 - Federação Salvador - BA 40210-750 Brasil","",-12.9954471588135,-38.5069122314453,,"",0,
44784109,"Av. Padre Domingos de Brito 1-95 - Garcia Salvador - BA 40100-820 Brasil","",-12.9937143325806,-38.5097236633301,,"",0,
45833152,"Avenida Leovigildo Filgueiras 949 - Garcia Salvador - BA Brasil","",-12.9943027496338,-38.5137214660645,,"",0,
45833146,"Av. Leovigildo Filgueiras 551-629 - Garcia Salvador - BA Brasil","",-12.9926786422729,-38.515453338623,,"",0,
45833566,"Av. Leovigildo Filgueiras 462-530 - Garcia Salvador - BA Brasil","",-12.9919166564941,-38.5165977478027,,"",0,
45833144,"Condomínio Edif Centro Medico Castro Alves - Av. Leovigildo Filgueiras 56 - Garcia Salvador - BA 40080-120 Brasil","",-12.9898366928101,-38.5196952819824,,"",0,
44783242,"Condomínio Cabula Tropical Center - R. Silveira Martins 272 - loja: 06 - Cabula Salvador - BA 41150-000 Brasil","",-12.9633750915527,-38.4719200134277,,"",0,
44784327,"Rua Silveira Martins 74 - Cabula Salvador - BA Brasil","",-12.9619941711426,-38.4712753295898,,"",0,
47565788,"Rua Silveira Martins 176 - Resgate Salvador - BA 41152-025 Brasil","",-12.9607000350952,-38.467960357666,,"",0,
44783240,"Rua Silveira Martins 232 - Cabula Salvador - BA Brasil","",-12.9585132598877,-38.4672813415527,,"",0,
44782479,"Rua Silveira Martins 1298 - Cabula Salvador - BA Brasil","",-12.957423210144,-38.464958190918,,"",0,
45834165,"R. Silveira Martins 1841 - Cabula Salvador - BA 40301-110 Brasil","",-12.9542589187622,-38.4629173278809,,"",0,
44782980,"R. Silveira Martins 1902 - Cabula Salvador - BA Brasil","",-12.9535474777222,-38.4613456726074,,"",0,
44784297,"Rua Silveira Martins 2077-2133 - Cabula Salvador - BA 41185-500 Brasil","",-12.9530220031738,-38.4601821899414,,"",0,
44784296,"R. Silveira Martins 251 - Cabula Salvador - BA 40301-110 Brasil","",-12.954122543335,-38.4576416015625,,"",0,
44784294,"R. Silveira Martins 2808 - Cabula Salvador - BA Brasil","",-12.9552965164185,-38.4556655883789,,"",0,
44784292,"R. Silveira Martins 3200 - Cabula Salvador - BA Brasil","",-12.9578971862793,-38.453971862793,,"",0,
44782585,"R. Silveira Martins 3346 - Cabula Salvador - BA Brasil","",-12.9588470458984,-38.4526062011719,,"",0,
44783733,"Av. Santo Antônio 2-4 - Liberdade Salvador - BA 40370-300 Brasil","TS LARGO DO TANQUE.",-12.9406852722168,-38.4899482727051,,"",0,
45833085,"Rua São Cristóvão 162","",-12.9420166015625,-38.4880180358887,,"",0,
46021712,"Rua São Cristóvão 84 - Liberdade Salvador - BA 40365-610 Brasil","",-12.9438495635986,-38.4890670776367,,"",0,
44783729,"Rua São Cristóvão 2-6 - Liberdade Salvador - BA 40365-610 Brasil","",-12.9457721710205,-38.4904594421387,,"",0,
45833779,"Estrada da Liberdade 336 - Pero Vaz Salvador - BA Brasil","",-12.9476594924927,-38.4923706054688,,"",0,
45833067,"Estr. da Liberdade 276-278 - Liberdade Salvador - BA 40375-016 Brasil","",-12.9485950469971,-38.4942054748535,,"",0,
45833997,"Estr. da Liberdade 186-192 - Liberdade Salvador - BA 40375-016 Brasil","",-12.949182510376,-38.4968299865723,,"",0,
45833069,"Estrada da Liberdade 127 Liberdade Salvador - BA 40375-016 Brasil","",-12.9512434005737,-38.4984550476074,,"",0,
45833070,"Largo da Lapinha 127-153 - Liberdade Salvador - BA 40325-220 Brasil","",-12.9553852081299,-38.499828338623,,"",0,
44734507,"Corredor da Lapinha 12 - Liberdade Salvador - BA 40325-220 Brasil","",-12.9568166732788,-38.499439239502,,"",0,
44734505,"R. São José de Baixo 96 - Baixa de Quintas Salvador - BA 40300-770 Brasil","",-12.9606685638428,-38.5013885498047,,"",0,
98439035,"R. São José de Baixo 1-61 - Barbalho Salvador - BA 40300-770 Brasil","",-12.9616956710815,-38.5017929077148,,"",0,
45833073,"R. Eng. João Pimenta Bastos S/N - Barbalho Salvador - BA Brazil","",-12.9645757675171,-38.5015754699707,,"",0,
44783614,"Rua Manoel Caetano 1-51 - Barbalho Salvador - BA 40301-080 Brasil","",-12.9666557312012,-38.5016441345215,,"",0,
46907041,"R. Ladeira do Hospital S/N - Nazaré Salvador - BA Brasil","",-12.971287727356,-38.5023002624512,,"",0,
44783781,"R. Praça Cons. Almeida Couto S/N - Nazaré Salvador - BA Brazil","",-12.9751396179199,-38.5027770996094,,"",0,
44782742,"Av. Joana Angélica S/N - Nazaré Salvador - BA Brasil","",-12.9766731262207,-38.505500793457,,"",0,
44784156,"Rua Santa Clara 142-174 - Nazaré Salvador - BA 40040-450 Brasil","",-12.9770011901855,-38.5073318481445,,"",0,
44042533_S,"R. da Engomadeira 551-557 - Engomadeira Salvador - BA 41200-005 Brasil","TP ENGOMADEIRA",-12.9494647979736,-38.4564361572266,,"",1,
44042533,"R. da Engomadeira 551-557 - Engomadeira Salvador - BA 41200-005 Brasil","TP ENGOMADEIRA",-12.9494647979736,-38.4564361572266,,"",0,44042533_S
58692509,"Rua da Engomadeira 2-102 - Engomadeira Salvador - BA Brasil","",-12.9501047134399,-38.4603424072266,,"",0,
59757229,"Avenida Luiz Viana Filho 101a Salvador - Bahia 41110 Brasil","",-12.9755849838257,-38.4608955383301,,"",0,
44165280,"Avenida Antonio Carlos Magalhaes 3410 Salvador - Bahia 40280 Brasil","",-12.9852628707886,-38.4673271179199,,"",0,
44165281,"Avenida Antonio Carlos Magalhaes Salvador - Bahia 40280 Brasil","",-12.988187789917,-38.4694137573242,,"",0,
45833380,"Av. Antônio Carlos Magalhães 2949 - Parque Bela Vista Salvador - BA 40280-000 Brazil","",-12.9889612197876,-38.4709625244141,,"",0,
45833381,"Avenida Antônio Carlos Magalhães 2499 Brotas Salvador - BA 40280-000 Brasil","",-12.9905834197998,-38.4742660522461,,"",0,
45833382,"Av. Juracy Magalhães Júnior 2545 - Horto Florestal Salvador - BA 40295-140 Brasil","",-12.9965963363647,-38.4781875610352,,"",0,
45833383,"Av. Juracy Magalhães Júnior 1790 - Horto Florestal Salvador - BA Brazil","",-12.9996290206909,-38.4816513061523,,"",0,
47566649,"Avenida Juracy Magalhaes Junior 1440 Salvador - Bahia 41926 Brasil","",-13.002495765686,-38.4833602905273,,"",0,
45833385,"Avenida Juracy Magalhaes Junior 500 Salvador - Bahia 41940 Brasil","",-13.0052347183228,-38.4863700866699,,"",0,
47568140,"Rua Jequié 78 Salvador - Bahia 41940 Brasil","",-13.0074415206909,-38.4913940429688,,"",0,
285966536,"Rua Lucaia 492 Salvador - Bahia 41940 Brasil","",-13.0067119598389,-38.4900436401367,,"",0,
47568141,"Avenida Juracy Magalhaes Junior 920 Salvador - Bahia 41940 Brasil","",-13.0062999725342,-38.487247467041,,"",0,
47565779,"Rua Ediso Dos Santos Salvador - Bahia 41926 Brasil","",-13.0052165985107,-38.48388671875,,"",0,
48843436,"Avenida Juracy Magalhaes Junior 1440 Salvador - Bahia 41926 Brasil","",-13.0021600723267,-38.4825286865234,,"",0,
44783342,"Av. Juracy Magalhães Júnior 1790 - Horto Florestal Salvador - BA Brazil","",-13.0002489089966,-38.4810256958008,,"",0,
44783343,"Avenida Juracy Magalhaes Junior Salvador - Bahia 41920 Brasil","",-12.9970121383667,-38.4775314331055,,"",0,
44783497,"Av. Antônio Carlos Magalhães 1128 - Pituba Salvador - BA 41800-700 Brazil","",-12.9962882995605,-38.4710693359375,,"",0,
44783496,"Av. ACM S/N - Pituba Salvador - BA Brasil","",-12.996467590332,-38.4679908752441,,"",0,
44784627,"Avenida Antônio Carlos Magalhães s/n - Pituba Salvador - BA Brasil","",-12.9985580444336,-38.4619941711426,,"",0,
47566971,"Av. ACM S/N - Pituba Salvador - BA Brasil","",-13.0002613067627,-38.4599571228027,,"",0,
44784515,"Rua Rio Grande do Sul 607 - Pituba Salvador - BA Brasil","",-13.0016803741455,-38.4595031738281,,"",0,
48553964,"Rua Rio Grande do Sul 368 - Pituba Salvador - BA 41830-140 Brasil","",-13.0030784606934,-38.4592437744141,,"",0,
44784520,"Rua Rio Grande Do Sul 179 Salvador - Bahia 41830 Brasil","",-13.0041370391846,-38.4590148925781,,"",0,
44784518,"Avenida Manoel Dias da Silva 1833 - Pituba Salvador - BA Brasil","",-13.0054759979248,-38.459545135498,,"",0,
44784505,"Av. Manoel Dias da Silva 1469-1513 - Pituba Salvador - BA 41830-001 Brasil","",-13.0070838928223,-38.4621810913086,,"",0,
48843419,"Av. Manoel Dias da Silva 1251 - Pituba Salvador - BA 41830-001 Brasil","",-13.0085897445679,-38.4643745422363,,"",0,
44784517,"Av. Manoel Dias da Silva 1101-1139 - Pituba Salvador - BA 41830-001 Brasil","",-13.0093212127686,-38.465461730957,,"",0,
45833721,"Avenida Manoel Dias Da Silva 591 Salvador - Bahia 41900 Brasil","",-13.0108518600464,-38.4675750732422,,"",0,
44783366,"Rua Visconde De Itaborahy 530 Salvador - Bahia 41900 Brasil","",-13.0125455856323,-38.4706954956055,,"",0,
44783253,"Rua Visconde De Itaborahy 596 Salvador - Bahia 41900 Brasil","",-13.0129060745239,-38.4743423461914,,"",0,
48843425,"Rua Ari Pereira de Oliveira 129-203 - Rio Vermelho Salvador - BA 41941-040 Brasil","",-13.0133285522461,-38.4784355163574,,"",0,
44783864,"R. Oswaldo Cruz S/N Bahia Brasil","",-13.012900352478,-38.4802627563477,,"",0,
44783865,"R. Oswaldo Cruz S/N - Rio Vermelho Salvador - BA Brasil","",-13.0122022628784,-38.4826011657715,,"",0,
44783896,"R. Oswaldo Cruz S/N - Rio Vermelho Salvador - BA Brasil","",-13.0124197006226,-38.4853820800781,,"",0,
45833725,"Rua João Gomes 225-269 - Rio Vermelho BA 41950-640 Brasil","",-13.0127601623535,-38.4902458190918,,"",0,
276388862,"Rua Da Paciencia 295 Salvador - Bahia 41950 Brasil","",-13.0109825134277,-38.493724822998,,"",0,
49372776,"Vila Matos 212-242 - Rio Vermelho Salvador - BA 41950-740 Brasil","",-13.0103883743286,-38.4990501403809,,"",0,
44783899,"Avenida Oceânica 3096 Bahia Brasil","",-13.0104150772095,-38.5024261474609,,"",0,
44783807,"Avenida Oceânica 2907 Bahia Brasil","",-13.0111274719238,-38.5068778991699,,"",0,
45834887,"Avenida Oceanica 2580 Salvador - Bahia 40170 Brasil","",-13.0103282928467,-38.5097122192383,,"",0,
44783813,"Av. Pres. Vargas 235-271 - Ondina Salvador - BA 40140-130 Brasil","",-13.009428024292,-38.5137825012207,,"",0,
44783814,"Avenida Oceanica 2142 Salvador - Bahia 40170 Brasil","",-13.0086040496826,-38.5151863098145,,"",0,
45833467,"Avenida Oceânica 1775 Bahia Brasil","",-13.0078725814819,-38.5176887512207,,"",0,
44165331,"Av. Sete de Setembro 4152-4300 - Barra Salvador - BA Brasil","",-13.0063762664795,-38.5330619812012,,"",0,
46021720,"R. Afonso Célso 294 - Barra Salvador - BA 40140-080 Brasil","",-13.0086851119995,-38.5292701721191,,"",0,
44783800,"R. Miguel Burnier 190 - Chame-Chame Salvador - BA 40140-190 Brasil","",-13.0084590911865,-38.5251808166504,,"",0,
47568123,"Av. Centenário 2761 - Chame-Chame Salvador - BA Brasil","TS AV CENTENÁRIO.",-13.0052824020386,-38.5231628417969,,"",0,
44782405,"Av. Centenário 2027-2225 - Chame-Chame Salvador - BA Brasil","TS CALABAR",-13.0008850097656,-38.518253326416,,"",0,
44784128,"Av. Centenário 1587-1693 - Graça Salvador - BA 40155-370 Brazil","",-12.9976854324341,-38.5167083740234,,"",0,
45833733,"Av. Centenário 1361 - Garcia Salvador - BA 40100-180 Brasil","",-12.9960842132568,-38.5156517028809,,"",0,
45833148,"Avenida Leovigildo Filgueiras 830 - Garcia Salvador - BA Brasil","",-12.9939908981323,-38.5143737792969,,"",0,
44784115,"Av. Centenário 501-627 - Garcia Salvador - BA Brazil","",-12.9915533065796,-38.5118255615234,,"",0,
43768311,"Av. Vale dos Barris","",-12.988356590271,-38.5146446228027,,"",0,
45834489,"R. Clóvis Spínola 120-168 - Politeama Salvador - BA Brazil","",-12.9858665466309,-38.5174751281738,,"",0,
44783769,"R. Direita da Piedade 493-543 - Campo Grande Salvador - BA 40070-190 Brazil","",-12.9868717193604,-38.5185050964355,,"",0,
43768239,"Avenida Heitor Dias Salvador - Bahia 40253 Brasil","",-12.9698667526245,-38.4798126220703,,"",0,
44784118,"Av. Centenário 2433-2523 - Chame-Chame Salvador - BA 40155-151 Brasil","TS CENTENÁRIO 2",-13.0029420852661,-38.5215873718262,,"",0,
45834097_S,"Praça São Benedito 23 - Nova Brasília Salvador - BA 41350-150 Brasil","TP NOVA BRASILIA",-12.915771484375,-38.4088325500488,,"",1,
45834097,"Praça São Benedito 23 - Nova Brasília Salvador - BA 41350-150 Brasil","TP NOVA BRASILIA",-12.915771484375,-38.4088325500488,,"",0,45834097_S
44782442,"Travessa Nova Brasília 1-37 - Nova Brasília Salvador - BA Brasil","",-12.9175491333008,-38.4084815979004,,"",0,
47566681,"Av. Aliomar Baleeiro 404 - Nova Brasília Salvador - BA 41388-005 Brasil","",-12.9188833236694,-38.4087333679199,,"",0,
44783270,"Av. Aliomar Baleeiro 423 - São Marcos Salvador - BA 41350-275 Brasil","",-12.9190769195557,-38.4114112854004,,"",0,
47568385,"Av. Aliomar Baleeiro 370 - Nova Brasília Salvador - BA 41388-005 Brasil","",-12.918848991394,-38.4129638671875,,"",0,
44784196,"001460 - Aliomar Baleeiro 6101-6195 - Nova Brasília Salvador - BA 41350-275 Brasil","",-12.9179821014404,-38.4142074584961,,"",0,
44784333,"001233 - Aliomar Baleeiro 5898-6040 - Canabrava Salvador - BA 41350-275 Brasil","",-12.9166164398193,-38.4154472351074,,"",0,
44782447,"Avenida Aliomar Baleeiro 5557-5717 - Jardim Nova Esperanca Salvador - BA 41370-040 Brasil","",-12.9170684814453,-38.4185447692871,,"",0,
45833333,"Av. Aliomar Baleeiro 5257-5321 - São Marcos Salvador - BA Brasil","",-12.9169054031372,-38.4212455749512,,"",0,
44784053,"Rua Simone Barradas 160 - Jardim Nova Esperanca Salvador - BA 41370-170 Brasil","",-12.9165754318237,-38.4219245910645,,"",0,
45834122,"R. Simone Barradas 139 - Jardim Nova Esperanca Salvador - BA 41370-030 Brasil","",-12.9150199890137,-38.421558380127,,"",0,
45834116,"R. Simone Barradas 49 - Novo Marotinho Salvador - BA 41370-030 Brasil","",-12.9102573394775,-38.418815612793,,"",0,
44782440_S,"Av. Simone Barradas 1-51 - Jardim Nova Esperanca Salvador - BA 41370-055 Brasil","",-12.9093828201294,-38.4182243347168,,"",1,
44782440,"Av. Simone Barradas 1-51 - Jardim Nova Esperanca Salvador - BA 41370-055 Brasil","",-12.9093828201294,-38.4182243347168,,"",0,44782440_S
44784252,"Rua Simone Barradas S/N - Jardim Nova Esperanca Salvador - BA 41370-120 Brasil","",-12.9123573303223,-38.4209098815918,,"",0,
44784251,"Rua Simone Barradas S/N - Jardim Nova Esperanca Salvador - BA 41388-125 Brasil","",-12.9160709381104,-38.4218902587891,,"",0,
45833335,"Condomínio Edifício Maison Des Arcs - Pituba Salvador - BA Brasil","",-12.9155263900757,-38.4254264831543,,"",0,
125960548,"4367 - Av. Aliomar Baleeiro 4313 - São Marcos Salvador - BA Brasil","",-12.9167375564575,-38.4291076660156,,"",0,
44782886,"Av. Aliomar Baleeiro 4143-4169 - Sete de Abril Salvador - BA 41385-160 Brasil","",-12.9162712097168,-38.4306106567383,,"",0,
45833359,"R. Nossa Sra. do Carmo 51-73 - Sete de Abril Salvador - BA 41385-040 Brasil","",-12.9129972457886,-38.4328460693359,,"",0,
236528712,"Avenida Antonio Carlos Magalhaes Salvador - Bahia 40280 Brasil","",-12.9838037490845,-38.4671974182129,,"",0,
44783877,"Av. Anita Garibaldi 2981 - Ondina Salvador - BA 40170-130 Brasil","",-13.0074653625488,-38.4943046569824,,"",0,
44783876,"Av. Anita Garibaldi 2261-2425 - Ondina Salvador - BA 40170-130 Brasil","",-13.0075387954712,-38.4985389709473,,"",0,
44783654,"Av. Adhemar de Barros S/N - Universidade Federal da Bahia Universidade Federal da Bahia - Campus Ondina - Ondina Salvador - BA Brasil","",-13.0024271011353,-38.506591796875,,"",0,
44783658,"Av. Adhemar de Barros S/N - Ondina Salvador - BA Brasil","",-13.006007194519,-38.5094871520996,,"",0,
229041981,"Avenida Oceanica 2483 Salvador - Bahia 40170 Brasil","",-13.0104999542236,-38.5099983215332,,"",0,
47568481,"Av. Anita Garibaldi 1942-2100 - Ondina Salvador - BA Brasil","",-13.0067071914673,-38.5009994506836,,"",0,
47568139,"Av. Anita Garibaldi 2308-2426 - Ondina Salvador - BA 40170-130 Brasil","",-13.0081281661987,-38.4985008239746,,"",0,
44783875,"Av. Anita Garibaldi 2632-2700 - Ondina Salvador - BA Brasil","",-13.0085897445679,-38.4957885742188,,"",0,
315669827,"Avenida Aliomar Baleeiro 27 Salvador - Bahia 41385 Brasil","",-12.9150905609131,-38.4326972961426,,"",0,
44782885,"002307 - Aliomar Baleeiro 4418 - Sete de Abril Salvador - BA 41330-005 Brasil","",-12.9162559509277,-38.4308395385742,,"",0,
125960549,"Av. Aliomar Baleeiro 15 - São Marcos Salvador - BA 41260-300 Brasil","",-12.9168434143066,-38.4290199279785,,"",0,
45832850,"Alameda São Lourenço 191-257 - Novo Marotinho Salvador - BA Brasil","",-12.9173498153687,-38.4233016967773,,"",0,
45834109,"R. Simone Barradas 257-265 - Novo Marotinho Salvador - BA 41370-030 Brasil","",-12.9122514724731,-38.4207954406738,,"",0,
45834413,"Avenida Aliomar Baleeiro 532 - Canabrava Salvador - BA 41350-275 Brasil","",-12.9170999526978,-38.4168472290039,,"",0,
195038965,"Avenida Aliomar Baleeiro 18 Salvador - Bahia 41372 Brasil","",-12.916784286499,-38.4159393310547,,"",0,
44784604,"000637 - Aliomar Baleeiro 6102-6196 - Nova Brasília Salvador - BA 41350-275 Brasil","",-12.918041229248,-38.4143447875977,,"",0,
47566309,"Rua Estr. Velha do Aeroporto S/N - Nova Brasília Salvador - BA 41350-275 Brasil","",-12.9185237884521,-38.4139251708984,,"",0,
